IATA,City,Latitude,Longitude
BTI,Barter Island,70.1340026855,-143.582000732
\N,Fort Wainwright,70.61340332,-159.8600006
LUR,Cape Lisburne,68.87509918,-166.1100006
PIZ,Point Lay,69.73290253,-163.0050049
ITO,Hilo,19.721399307250977,-155.04800415039062
ORL,Orlando,28.5455,-81.332901
BTT,Bettles,66.91390228,-151.529007
\N,Clear Mews,64.301201,-149.119995
UTO,Indian Mountains,65.99279785,-153.7039948
FYU,Fort Yukon,66.57150268554688,-145.25
SVW,Sparrevohn,61.09740067,-155.5740051
FRN,Fort Richardson,61.26639938,-149.6529999
TLJ,Tatalina,62.8944015503,-155.977005005
CZF,Cape Romanzof,61.78030014,-166.0390015
BED,Bedford,42.47000122,-71.28900146
SNP,St. Paul Island,57.16730117797852,-170.22000122070312
EHM,Cape Newenham,58.6464004517,-162.06300354
STG,Point Barrow,56.5783004761,-169.662002563
ILI,Iliamna,59.75439835,-154.9109955
PTU,Port Moller,59.01139831542969,-161.82000732421875
BMX,Big Mountain,59.3611984253,-155.259002686
OSC,Oscoda,44.451599,-83.394096
OAR,Fort Ord,36.68190002,-121.762001
MHR,Sacramento,38.55390167,-121.2979965
BYS,Fort Irwin,35.2804985046,-116.629997253
\N,Twenty Nine Palms,34.2961998,-116.1620026
FSM,Fort Smith,35.33660125732422,-94.36740112304688
MRI,Anchorage,61.2135009765625,-149.843994140625
GNT,Grants,35.167301178,-107.902000427
PNC,Ponca City,36.73199844,-97.09980011
SVN,Hunter Aaf,32.00999832,-81.14569855
GFK,Grand Forks,47.949299,-97.176102
PBF,Pine Bluff,34.1731,-91.9356
NSE,Milton,30.7241993,-87.02189636
HNM,Hana,20.79560089111328,-156.01400756835938
PRC,Prescott,34.65449905,-112.4199982
TTN,Trenton,40.27669906616211,-74.8134994506836
BOS,Boston,42.36429977,-71.00520325
SUU,Fairfield,38.262699127197,-121.92700195312
RME,Rome,43.23379898,-75.40699768
ENV,Wendover,40.7187004089,-114.03099823
BFM,Mobile,30.626800537100003,-88.06809997559999
OAK,Oakland,37.721298,-122.221001
OMA,Omaha,41.3032,-95.894096
\N,Port Angeles,48.14149856567383,-123.41400146484376
OGG,Kahului,20.8986,-156.429993
ICT,Wichita,37.649899,-97.433098
MCI,Kansas City,39.2976,-94.713898
MSN,Madison,43.13990020751953,-89.3375015258789
DLG,Dillingham,59.04470062,-158.5050049
HRO,Harrison,36.26150131225586,-93.15470123291016
PHX,Phoenix,33.43429946899414,-112.01200103759766
BGR,Bangor,44.80739974975586,-68.8281021118164
FXE,Fort Lauderdale,26.1972999573,-80.1707000732
GGG,Longview,32.38399887084961,-94.71150207519533
AND,Andersen,34.4945983887,-82.70939636230001
GEG,Spokane,47.61989974975586,-117.53399658203124
HWO,Hollywood,26.0012,-80.2407
SFO,San Francisco,37.61899948120117,-122.375
CTB,Cutbank,48.6083984375,-112.375999451
ARA,Louisiana,30.0378,-91.883904
GNV,Gainesville,29.6900997162,-82.2717971802
MEM,Memphis,35.04240036010742,-89.97669982910156
DUG,Douglas,31.4689998627,-109.603996277
BIG,Delta Junction,63.9944992065,-145.722000122
CNW,Waco,31.6378002167,-97.0740966797
ANN,Annette Island,55.04240036010742,-131.57200622558594
CAR,Caribou,46.8714981079,-68.0178985596
LRF,Jacksonville,34.916900634799994,-92.14969635010002
HUA,Redstone,34.67869949,-86.68479919
POB,Fort Bragg,35.1708984375,-79.014503479004
DHT,Dalhart,36.0225982666,-102.54699707
DLF,Del Rio,29.359501,-100.778002
LAX,Los Angeles,33.94250107,-118.4079971
ANB,Anniston,33.5882,-85.8581
CLE,Cleveland,41.4117012024,-81.8498001099
DOV,Dover,39.12950134,-75.46600342
CVG,Cincinnati,39.0488014221,-84.6678009033
FME,Fort Meade,39.08539962769999,-76.7593994141
\N,China Lake,35.6853981,-117.6920013
HON,Huron,44.38520050048828,-98.22850036621094
JNU,Juneau,58.35499954223633,-134.5760040283203
LFT,Lafayette,30.20529938,-91.98760223
EWR,Newark,40.692501068115234,-74.168701171875
BOI,Boise,43.5644,-116.223
INS,Indian Springs,36.5872001648,-115.672996521
GCK,Garden City,37.9275016785,-100.723999023
MOT,Minot,48.2593994140625,-101.27999877929688
HHI,Wahiawa,21.48349953,-158.0399933
MXF,Montgomery,32.3829,-86.365799
\N,Robinson,34.85010147,-92.30020142
DAL,Dallas,32.847099,-96.851799
FCS,Fort Carson,38.67839813,-104.7570038
HLN,Helena,46.6068000793457,-111.98300170898438
NKX,Miramar,32.86840057,-117.1429977
LUF,Phoenix,33.534999847399995,-112.383003235
\N,Mary Esther,30.42779922485352,-86.68930053710938
HHR,Hawthorne,33.922798,-118.334999
HUL,Houlton,46.1231002808,-67.792098999
END,Enid,36.3391990662,-97.9164962769
NTD,Point Mugu,34.120300293,-119.121002197
EDW,Edwards Afb,34.905399,-117.884003
LCH,Lake Charles,30.126100540161133,-93.22329711914062
KOA,Kona,19.738783,-156.045603
MYR,Myrtle Beach,33.6796989441,-78.9282989502
NLC,Lemoore,36.33300018,-119.9520035
ACK,Nantucket,41.25310135,-70.06020355
FAF,Fort Eustis,37.1324996948,-76.60880279540001
HOP,Hopkinsville,36.668598175,-87.49620056150002
DCA,Washington,38.8521,-77.037697
NHK,Patuxent River,38.285999,-76.411797
PSX,Palacios,28.727500915527,-96.250999450684
BYH,Blytheville,35.9642982483,-89.94400024410001
ACY,Atlantic City,39.45759963989258,-74.57720184326172
TIK,Oklahoma City,35.414699554443,-97.386596679688
ECG,Elizabeth City,36.26060104,-76.17459869
PUB,Pueblo,38.289100646972656,-104.49700164794922
PQI,Presque Isle,46.68899918,-68.0447998
IKR,Kirtland A.f.b.,35.040222,-106.609194
GRF,Fort Lewis,47.07920074,-122.5810013
ADQ,Kodiak,57.75,-152.4940033
UPP,Opolu,20.265300750732425,-155.86000061035156
FLL,Fort Lauderdale,26.072599,-80.152702
\N,Muskogee,35.656502,-95.366699
INL,International Falls,48.566200256347656,-93.4030990600586
SLC,Salt Lake City,40.78839874267578,-111.97799682617188
CDS,Childress,34.4337997437,-100.288002014
BIX,Biloxi,30.4104003906,-88.92440032959999
LSF,Fort Benning,32.337299346900004,-84.9913024902
NQI,Kingsville,27.5072002411,-97.8097000122
FRI,Fort Riley,39.05530167,-96.76450348
MDT,Harrisburg,40.1935005188,-76.7633972168
LNK,Lincoln,40.85100173950195,-96.75920104980467
LAN,Lansing,42.77870178222656,-84.58740234375
MUE,Kamuela,20.001300811767575,-155.66799926757812
MSS,Massena,44.93579864501953,-74.84559631347656
HKY,Hickory,35.74110031,-81.38950348
SPG,St. Petersburg,27.7651,-82.626999
FMY,Fort Myers,26.58659935,-81.86329650879999
IAH,Houston,29.984399795532227,-95.34140014648438
\N,Millinocket,45.64780044555664,-68.68560028076172
ADW,Camp Springs,38.810799,-76.866997
INT,Winston-salem,36.13370132446289,-80.22200012207031
VCV,Victorville,34.597499847399995,-117.383003235
CEW,Crestview,30.778799057,-86.522102356
\N,Fort Drum,44.05559921,-75.71949768
PHN,Port Huron,42.9109993,-82.52890015
BFL,Bakersfield,35.43360138,-119.0569992
ELP,El Paso,31.80719948,-106.3779984
HRL,Harlingen,26.228500366210938,-97.65440368652344
CAE,Columbia,33.93880081176758,-81.11949920654297
DMA,Tucson,32.1665000916,-110.883003235
NPA,Pensacola,30.35269928,-87.31860352
PNS,Pensacola,30.473400115967,-87.186599731445
RDR,Red River,47.961101532,-97.4011993408
HOU,Houston,29.64539909,-95.27890015
BFK,Buckley,39.7016983032,-104.751998901
ORT,Northway,62.9612999,-141.9290009
PAQ,Palmer,61.594898,-149.08901
PIT,Pittsburgh,40.49150085,-80.23290253
BRW,Barrow,71.285402,-156.766008
EFD,Houston,29.6072998047,-95.1587982178
NUW,Whidbey Island,48.351799,-122.655998
ALI,Alice,27.7409000397,-98.02690124510002
VAD,Valdosta,30.9678001404,-83.1930007935
MIA,Miami,25.79319953918457,-80.29060363769531
SEA,Seattle,47.449001,-122.308998
CHA,Chattanooga,35.035301208496094,-85.20379638671875
BDR,Stratford,41.16350173950195,-73.1261978149414
JAN,Jackson,32.3111991882,-90.0758972168
GLS,Galveston,29.265300750732425,-94.8603973388672
LGB,Long Beach,33.81769943,-118.1520004
HDH,Dillingham,21.5795001984,-158.197006226
IPT,Williamsport,41.241798400878906,-76.92109680175781
IND,Indianapolis,39.7173,-86.294403
SZL,Knobnoster,38.73030090332,-93.547897338867
AKC,Akron,41.0374984741,-81.4669036865
GWO,Greenwood,33.4943008423,-90.0847015381
HPN,White Plains,41.06700134277344,-73.70760345458984
FOK,West Hampton Beach,40.8437004089,-72.6317977905
JBR,Jonesboro,35.83169937133789,-90.64640045166016
XSD,Tonopah,37.7988014221,-116.78099823
LNA,West Palm Beach,26.59300041,-80.08509827
NZY,San Diego,32.69919968,-117.2149963
BIF,El Paso,31.84950066,-106.3799973
YUM,Yuma,32.65660095,-114.6060028
CNM,Carlsbad,32.337501525878906,-104.26300048828124
DLH,Duluth,46.8420982361,-92.1936035156
BET,Bethel,60.77980042,-161.8379974
LOU,Louisville,38.2280006409,-85.6636962891
FHU,Fort Huachuca,31.588499069213867,-110.34400177001952
LIH,Lihue,21.97599983215332,-159.33900451660156
HUF,Terre Haute,39.4515,-87.307602
HVR,Havre,48.54299927,-109.762001
MWH,Grant County Airport,47.20769882,-119.3199997
MPV,Montpelier,44.20349884,-72.56230164
\N,San Nicolas Island,33.23979949951172,-119.45800018310548
RIC,Richmond,37.50519943237305,-77.3197021484375
SHV,Shreveport,32.446602,-93.8256
CDV,Cordova,60.4917984,-145.4779968
ORF,Norfolk,36.89459991455078,-76.20120239257812
BPT,Beaumont,29.9507999420166,-94.02069854736328
SAV,Savannah,32.12760162,-81.20210266
HIF,Ogden,41.12403,-111.973086
OME,Nome,64.51219940185547,-165.44500732421875
\N,San Luis,45.77099990844727,-122.86199951171876
PIE,St. Petersburg,27.91020012,-82.68740082
MNM,Macon,45.126701,-87.638397
CXO,Conroe,30.351801,-95.414497
SCC,Deadhorse,70.19470215,-148.4649963
SAT,San Antonio,29.533700942993164,-98.46980285644533
ROC,Rochester,43.118900299072266,-77.67240142822266
COF,Coco Beach,28.2348995209,-80.6100997925
TEB,Teterboro,40.85010147089999,-74.060798645
RCA,Rapid City,44.14500046,-103.1039963
RDU,Raleigh-durham,35.87760162353516,-78.7874984741211
DAY,Dayton,39.90240097045898,-84.21939849853516
ENA,Kenai,60.57310104370117,-151.2449951171875
MLC,Mcalester,34.882401,-95.783501
IAG,Niagara Falls,43.1072998046875,-78.94619750976562
CFD,Bryan,30.7157001495,-96.3313980103
LIY,Wright,31.889099,-81.562303
PHF,Newport News,37.13190079,-76.49299622
ESF,Alexandria,31.3948993683,-92.2957992554
LTS,Altus,34.667098999,-99.2667007446
TUS,Tucson,32.1161003112793,-110.94100189208984
MIB,Minot,48.4156,-101.358002
BAB,Marysville,39.136100769,-121.43699646
IKK,Kankakee,41.07139968869999,-87.8462982178
GSB,Goldsboro,35.33940125,-77.96060181
PVD,Providence,41.732601,-71.420403
SBY,Salisbury,38.34049987792969,-75.51029968261719
\N,Rancho Murieta,38.48680114746094,-121.10299682617188
BUR,Burbank,34.20069885253906,-118.35900115966795
DTW,Detroit,42.212398529052734,-83.35340118408203
TPA,Tampa,27.975500106811523,-82.533203125
PMB,Pembina,48.9425010681,-97.2407989502
POE,Fort Polk,31.0447998,-93.1917038
EIL,Fairbanks,64.66570282,-147.102005
HIB,Hibbing,47.38660049,-92.83899689
LFK,Lufkin,31.2339992523,-94.75
MAF,Midland,31.9424991607666,-102.2020034790039
GRB,Green Bay,44.48509979248047,-88.12960052490234
ADM,Ardmore,34.30301,-97.0196342
WRI,Wrightstown,40.0155983,-74.59169769
\N,Cherry Point,34.90090179,-76.88069916
\N,Santa Barbara,32.609100341796875,-82.36990356445312
AGS,Bush Field,33.36989974975586,-81.9645004272461
ISN,Williston,48.177898407,-103.641998291
LIT,Little Rock,34.729400634799994,-92.2242965698
SWF,Newburgh,41.50410079956055,-74.10479736328125
BDE,Baudette,48.7284011841,-94.612197876
SAC,Sacramento,38.5125007629,-121.492996216
HOM,Homer,59.645599365234375,-151.4770050048828
TBN,Fort Leonardwood,37.74160004,-92.14070129
MGE,Marietta,33.91540146,-84.51629639
SKA,Spokane,47.6151008606,-117.65599823
HTL,Houghton Lake,44.359798,-84.671095
PAM,Panama City,30.0695991516,-85.57540130619999
DFW,Dallas-Fort Worth,32.896801,-97.038002
MLB,Melbourne,28.10280036926269,-80.64530181884766
TCM,Tacoma,47.1376991272,-122.475997925
AUS,Austin,30.194499969482425,-97.6698989868164
LCK,Columbus,39.813801,-82.927803
MQT,Gwinn,46.3535995483,-87.395401001
TYS,Knoxville,35.81100082,-83.9940033
HLR,Fort Hood,31.1387004852,-97.7145004272
STL,St. Louis,38.748697,-90.370003
MIV,Millville,39.367802,-75.072197
SPS,Wichita Falls,33.9888,-98.491898
LUK,Cincinnati,39.10329819,-84.41860199
ATL,Atlanta,33.6367,-84.428101
MER,Merced,37.38050079,-120.5680008
MCC,Sacramento,38.66759872,-121.401001
GRR,Grand Rapids,42.88079834,-85.52279663
INK,Wink,31.7796001434,-103.200996399
FAT,Fresno,36.77619934082031,-119.71800231933594
VRB,Vero Beach,27.6556,-80.417901
IPL,Imperial,32.834201812699995,-115.57900238
BNA,Nashville,36.1245002746582,-86.6781997680664
LRD,Laredo,27.543800354003903,-99.46160125732422
EDF,Anchorage,61.2509994506836,-149.8070068359375
OTZ,Kotzebue,66.88469696,-162.598999
AOO,Altoona,40.29639816,-78.31999969
DYS,Abilene,32.4207992554,-99.854598999
ELD,El Dorado,33.22100067138672,-92.81330108642578
LGA,New York,40.77719879,-73.87259674
TLH,Tallahassee,30.396499633789062,-84.35030364990234
DPA,West Chicago,41.90779877,-88.24859619
ACT,Waco,31.611299514770508,-97.23049926757812
AUG,Augusta,44.3205986023,-69.7973022461
\N,Hillsboro,32.08349991,-97.09719849
NIP,Jacksonville,30.2358,-81.680603
MKL,Jackson,35.599899,-88.915604
MKK,Molokai,21.15290069580078,-157.0959930419922
FTK,Fort Knox,37.9071006775,-85.9720993042
\N,Jacksonville,34.70840073,-77.43969727
SJT,San Angelo,31.35770034790039,-100.49600219726562
CXL,Calexico,32.6694984436,-115.513000488
CIC,Chico,39.79539871,-121.8580017
BTV,Burlington,44.4719009399,-73.15329742429999
JAX,Jacksonville,30.49410057067871,-81.68789672851562
DRO,Durango,37.1515007019,-107.753997803
IAD,Washington,38.94449997,-77.45580292
CLL,College Station,30.58860016,-96.36380005
SFF,Spokane,47.682800292969,-117.32299804688
MKE,Milwaukee,42.94720077514648,-87.89659881591797
ABI,Abilene,32.4113006592,-99.6819000244
COU,Columbia,38.81809997558594,-92.21959686279295
PDX,Portland,45.58869934,-122.5979996
TNT,Miami,25.861799240112,-80.897003173828
PBI,West Palm Beach,26.68320083618164,-80.09559631347656
FTW,Fort Worth,32.819801,-97.362396
OGS,Ogdensburg,44.6819000244,-75.46549987790002
FMH,Falmouth,41.6584014893,-70.5214004517
BFI,Seattle,47.52999877929688,-122.302001953125
SKF,San Antonio,29.38419914,-98.58110046
HNL,Honolulu,21.32062,-157.924228
DSM,Des Moines,41.53400039672852,-93.66310119628906
EWN,New Bern,35.0730018616,-77.04290008539999
SAN,San Diego,32.7336006165,-117.190002441
MLU,Monroe,32.51089859008789,-92.0376968383789
SSC,Sumter,33.97269821,-80.47059631
ONT,Ontario,34.055999755859375,-117.60099792480467
GVT,Greenvile,33.0677986145,-96.0652999878
ROW,Roswell,33.30160140991211,-104.53099822998048
DET,Detroit,42.40919876,-83.00990295
BRO,Brownsville,25.90679931640625,-97.4259033203125
DHN,Dothan,31.3213005065918,-85.44960021972656
WWD,Wildwood,39.0084991455,-74.9083023071
NFL,Fallon,39.41659927,-118.7009964
MTC,Mount Clemens,42.613463,-82.836919
FMN,Farmington,36.7411994934,-108.230003357
CRP,Corpus Christi,27.77039909362793,-97.5011978149414
SYR,Syracuse,43.11119842529297,-76.1063003540039
NQX,Key West,24.57579994,-81.68890381
MDW,Chicago,41.785999,-87.752403
SJC,San Jose,37.362598,-121.929001
HOB,Hobbs,32.6875,-103.2170029
PNE,Philadelphia,40.081902,-75.010597
DEN,Denver,39.861698150635,-104.672996521
PHL,Philadelphia,39.87189865112305,-75.24109649658203
SUX,Sioux City,42.40259933,-96.38439941
MCN,Macon,32.69279861450195,-83.64920043945312
TCS,Truth Or Consequences,33.2369003296,-107.272003174
PMD,Palmdale,34.62939835,-118.0849991
RND,San Antonio,29.52969933,-98.27890015
NJK,El Centro,32.829201,-115.671996
CMH,Columbus,39.998001,-82.891899
FYV,Fayetteville,36.00510025024414,-94.17009735107422
FSI,Fort Sill,34.64979935,-98.40219879
\N,Princeton,45.55989838,-93.60820007
FFO,Dayton,39.8260993958,-84.0483016968
GAL,Galena,64.73619843,-156.9369965
\N,Chandler,33.2691,-111.810997
MWL,Mineral Wells,32.7816009521,-98.0602035522
IAB,Wichita,37.62189865,-97.26820374
NBG,New Orleans,29.82530022,-90.03500366
BFT,Beaufort,32.4122009277,-80.6343994141
TXK,Texarkana,33.45370101928711,-93.99099731445312
PBG,Plattsburgh,44.6509017944336,-73.46810150146484
APG,Aberdeen,39.466202,-76.1688
TCC,Tucumcari,35.182800293,-103.602996826
ANC,Anchorage,61.17440032958984,-149.99600219726562
GRK,Killeen,31.067199707,-97.8289031982
\N,Zuni Pueblo,35.08319854736328,-108.79199981689452
BLI,Bellingham,48.79280090332031,-122.53800201416016
NQA,Millington,35.356701,-89.8703
EKN,Elkins,38.88940048,-79.85710144
HFD,Hartford,41.736698150635,-72.649398803711
SFZ,Smithfield,41.9207992554,-71.49140167239999
MOB,Mobile,30.691200256348,-88.242797851562
NUQ,Mountain View,37.4161,-122.049004
SAF,Santa Fe,35.617099762,-106.088996887
BKH,Barking Sands,22.0228004456,-159.785003662
DRI,Deridder,30.8316993713,-93.3398971558
BSF,Bradshaw Field,19.760099411,-155.554000854
OLS,Nogales,31.4177,-110.848
MCF,Tampa,27.84930038,-82.52120209
BLV,Belleville,38.5452,-89.835197
OPF,Miami,25.907,-80.278397
DRT,Del Rio,29.3742008209,-100.927001953
RSW,Fort Myers,26.53619956970215,-81.75520324707031
AKN,King Salmon,58.67679977,-156.6490021
MUI,Muir,40.434799,-76.569397
JHM,Lahania-kapalua,20.962900161743164,-156.67300415039062
JFK,New York,40.63980103,-73.77890015
HST,Homestead,25.48859978,-80.38359833
RAL,Riverside,33.95190048,-117.4449997
FLV,Fort Leavenworth,39.3683013916,-94.9147033691
WAL,Wallops Island,37.9402008057,-75.4664001465
HMN,Alamogordo,32.8525009155,-106.107002258
NXX,Willow Grove,40.19979858,-75.14820099
CYS,Cheyenne,41.15570068,-104.8119965
SCK,Stockton,37.894199371338,-121.2379989624
CHS,Charleston,32.89860153,-80.04049683
RNO,Reno,39.49909973144531,-119.76799774169922
KTN,Ketchikan,55.35559845,-131.7140045
YIP,Detroit,42.23789978,-83.53040314
VBG,Lompoc,34.7373008728,-120.583999634
BHM,Birmingham,33.56290054,-86.75350189
NEL,Lakehurst,40.03329849,-74.353302
SYA,Shemya,52.71229935,174.1139984
LSV,Las Vegas,36.2361984253,-115.033996582
RIV,Riverside,33.880699,-117.259003
MOD,Modesto,37.62580109,-120.9540024
SMF,Sacramento,38.69540023803711,-121.59100341796876
UGN,Chicago,42.422199249268,-87.867897033691
COS,Colorado Springs,38.805801,-104.700996
BUF,Buffalo,42.94049835,-78.73220062
SKY,Sandusky,41.4333992004,-82.6522979736
PAE,Everett,47.90629959,-122.2819977
MUO,Mountain Home,43.043598,-115.872002
CDC,Cedar City,37.70100021362305,-113.0989990234375
BDL,Windsor Locks,41.9388999939,-72.68319702149999
MFE,Mcallen,26.17580032,-98.23860168
NGU,Norfolk,36.937599,-76.289299
CEF,Chicopee Falls,42.19400024,-72.53479767
LBB,Lubbock,33.663601,-101.822998
ORD,Chicago,41.9786,-87.9048
BCT,Boca Raton,26.3784999847,-80.1076965332
FAI,Fairbanks,64.81510162,-147.8560028
\N,Quantico,38.50170135,-77.30529785
CVS,Clovis,34.3828010559,-103.321998596
NGF,Kaneohe Bay,21.4505004883,-157.768005371
OFF,Omaha,41.118301391602,-95.912498474121
GKN,Gulkana,62.1548996,-145.4570007
ART,Watertown,43.99190139770508,-76.02169799804688
PSP,Palm Springs,33.8297004699707,-116.50700378417967
AMA,Amarillo,35.219398,-101.706001
FOD,Fort Dodge,42.55149841,-94.19259644
BAD,Shreveport,32.5018005371,-93.6626968384
FOE,Topeka,38.9509010315,-95.6635971069
COT,Cotulla,28.45669937,-99.22029877
ILM,Wilmington,34.270599365234375,-77.90260314941406
BTR,Baton Rouge,30.533199,-91.149597
\N,Meridian,32.55210114,-88.55560303
TYR,Tyler,32.35409927368164,-95.40239715576172
BWI,Baltimore,39.1754,-76.668297
HBR,Hobart,34.991317,-99.051313
LNY,Lanai,20.785600662231445,-156.9510040283203
AEX,Alexandria,31.32740020751953,-92.54979705810548
WSD,White Sands,32.34149933,-106.4029999
CDB,Cold Bay,55.20610046386719,-162.72500610351562
TUL,Tulsa,36.19839859008789,-95.88809967041016
SIT,Sitka,57.04710006713867,-135.36199951171875
ISP,Islip,40.79520035,-73.10019684
MSP,Minneapolis,44.882,-93.221802
ILG,Wilmington,39.67869949,-75.60649872
DUT,Unalaska,53.900100708,-166.544006348
MSY,New Orleans,29.99340057373047,-90.25800323486328
PWM,Portland,43.64619827,-70.30930328
OKC,Oklahoma City,35.39310073852539,-97.60070037841795
ALB,Albany,42.74829864501953,-73.80169677734375
VDZ,Valdez,61.13389969,-146.2480011
LFI,Hampton,37.082901001,-76.360496521
SNA,Santa Ana,33.67570114,-117.8679962
CBM,Colombus,33.6437988281,-88.44380187990001
TMB,Kendall-tamiami,25.6478996277,-80.432800293
NTU,Oceana,36.820702,-76.033501
GUS,Peru,40.6481018066,-86.1520996094
CPR,Casper,42.908001,-106.463997
VPS,Valparaiso,30.4832,-86.525398
SEM,Selma,32.343898773193,-86.987800598145
EYW,Key West,24.556100845336918,-81.75959777832031
CLT,Charlotte,35.2140007019043,-80.94309997558594
LAS,Las Vegas,36.08010101,-115.1520004
MCO,Orlando,28.429399490356445,-81.30899810791016
FLO,Florence,34.18539810180664,-79.7238998413086
GTF,Great Falls,47.48199844,-111.3710022
YNG,Youngstown,41.26070023,-80.67910004
FBK,Fort Wainwright,64.83750153,-147.6139984
\N,Mackminnville,45.19440079,-123.1360016
WRB,Macon,32.6400985718,-83.5919036865
PUW,Pullman,46.7439,-117.110001
LWS,Lewiston,46.3745002746582,-117.01499938964844
ELM,Elmira,42.1599006652832,-76.8916015625
ITH,Ithaca,42.49100112915039,-76.4583969116211
MRY,Monterey,36.58700180053711,-121.84300231933594
SBA,Santa Barbara,34.42620087,-119.8399963
DAB,Daytona Beach,29.179899,-81.058098
JRB,New York,40.70119858,-74.00900269
TKA,Talkeetna,62.320499420166,-150.09399414062
HVN,New Haven,41.26369858,-72.88680267
AVL,Asheville,35.43619918823242,-82.54180145263672
GSO,Greensboro,36.097801208496094,-79.93730163574219
FSD,Sioux Falls,43.5820007324,-96.741897583
MHT,Manchester NH,42.932598,-71.435699
APF,Naples,26.1525993347,-81.7752990723
SDF,Louisville,38.1744,-85.736
CHO,Charlottesville VA,38.13859939575195,-78.4529037475586
ROA,Roanoke VA,37.3255,-79.975403
LEX,Lexington KY,38.0364990234375,-84.60590362548828
EVV,Evansville,38.0369987488,-87.5324020386
ABQ,Albuquerque,35.040199,-106.609001
BZN,Bozeman,45.77750015,-111.1529999
BIL,Billings,45.80770111083984,-108.54299926757812
BTM,Butte,45.95479965209961,-112.49700164794922
TVC,Traverse City,44.74140167236328,-85.58219909667969
BHB,Bar Harbor,44.45000076,-68.3615036
RKD,Rockland,44.06010056,-69.09919739
JAC,Jacksn Hole,43.6072998046875,-110.73799896240234
RFD,Rockford,42.19540023803711,-89.09719848632812
TSS,New York,40.7425,-73.971944
GSP,Greenville,34.8956985474,-82.2189025879
BMI,Bloomington,40.47710037,-88.91590118
GPT,Gulfport,30.40730094909668,-89.07009887695312
AZO,Kalamazoo,42.234901428222656,-85.5521011352539
TOL,Toledo,41.58679962,-83.80780029
FWA,Fort Wayne,40.97850037,-85.19509888
DEC,Decatur,39.834598541259766,-88.8656997680664
CID,Cedar Rapids,41.88470077514648,-91.71080017089844
LSE,La Crosse,43.879002,-91.256699
CWA,Wassau,44.7775993347,-89.6668014526
PIA,Peoria,40.664199829100006,-89.6932983398
ATW,Appleton,44.2580986023,-88.5190963745
RST,Rochester,43.90829849243164,-92.5
CMI,Champaign,40.03919983,-88.27809906
MHK,Manhattan,39.14099884033203,-96.6707992553711
FKL,Franklin,41.3778991699,-79.8603973389
GJT,Grand Junction,39.1223983765,-108.527000427
SGU,Saint George,37.036389,-113.510306
DWH,Houston,30.0618000031,-95.5528030396
\N,Port O\'Connor,28.429725,-96.444419
SRQ,Sarasota,27.39539909362793,-82.55439758300781
X21,Titusville,28.622552,-80.83541
VNY,Van Nuys,34.209800720215,-118.48999786377
MLI,Moline,41.44850158691406,-90.50749969482422
PFN,Panama City,30.212099,-85.6828
DWS,Orlando,28.398,-81.57
BIS,Bismarck,46.77270126342773,-100.74600219726562
TEX,Telluride,37.9538002,-107.9079971
RAP,Rapid City,44.0452995300293,-103.05699920654295
CLD,Carlsbad,33.12829971,-117.2799988
FNT,Flint,42.96540069580078,-83.74359893798828
RDD,Redding,40.50899887,-122.2929993
EUG,Eugene,44.12459945678711,-123.21199798583984
IDA,Idaho Falls,43.514599,-112.070999
MFR,Medford,42.37419891357422,-122.8730010986328
RDM,Redmond-Bend,44.2541008,-121.1500015
CAK,Akron,40.91609954833984,-81.44219970703125
HSV,Huntsville,34.637199401855,-86.775100708008
PKB,PARKERSBURG,39.34510040283203,-81.43920135498047
MGM,MONTGOMERY,32.30059814,-86.39399719
TRI,BRISTOL,36.475201,-82.407401
PAH,PADUCAH,37.06079864501953,-88.7738037109375
PGA,Page,36.92610168,-111.447998
FCA,Kalispell,48.31050109863281,-114.25599670410156
MBS,Saginaw,43.532901763916016,-84.07959747314453
BGM,Binghamton,42.20869827,-75.97979736
BLH,Blythe,33.6192016602,-114.717002869
PSG,Petersburg,56.80170059,-132.9450073
SFB,Sanford,28.7775993347168,-81.23750305175781
JST,Johnstown,40.31610107421875,-78.83390045166016
MSO,Missoula,46.91630173,-114.0910034
GCN,Grand Canyon,35.95240020751953,-112.14700317382812
SGR,Sugar Land,29.622299194336,-95.65650177002
APA,Denver,39.57009888,-104.848999
CVN,Clovis,34.4250984192,-103.07900238
FST,Fort Stockton,30.9157009125,-102.916000366
LVS,Las Vegas,35.6542015076,-105.141998291
IWS,Houston,29.8181991577,-95.6725997925
\N,La Junta,38.04970169,-103.5090027
LRU,Las Cruces,32.289398193359375,-106.9219970703125
BKD,Breckenridge,32.71900177,-98.8909988403
TPL,Temple,31.15250015258789,-97.40779876708984
OZA,Ozona,30.735300064087,-101.20300292969
EGE,Vail,39.64260101,-106.9179993
\N,Denver,39.779255,-104.88184
CGF,Richmond Heights,41.5651016235,-81.4863967896
MFD,Mansfield,40.82139968869999,-82.5166015625
CSG,Columbus,32.516300201416016,-84.93890380859375
LAW,Lawton,34.5676994324,-98.4166030884
FNL,Fort Collins,40.451804,-105.011
FLG,Flagstaff,35.13850021,-111.6709976
TVL,South Lake Tahoe,38.89390182495117,-119.99500274658205
TWF,Twin Falls,42.4818,-114.487999
MVY,Vineyard Haven MA,41.3931007385,-70.6143035889
UUU,Newport RI,41.533056,-71.282222
VSF,Springfield VT,43.343333,-72.517222
CON,Concord NH,43.20270157,-71.50229645
SFM,Sanford ME,43.39383,-70.708
GON,Groton CT,41.3301010131836,-72.04509735107422
STC,Saint Cloud,45.54660034179688,-94.05989837646484
GTR,Columbus Mississippi,33.450298309299995,-88.5914001465
HQM,Hoquiam,46.9711990356,-123.93699646
ERI,Erie,42.0831270134,-80.1738667488
HYA,Barnstable,41.66930008,-70.28040314
SDX,Sedona,34.848598480225,-111.78800201416
\N,Dry Tortugas,24.62,-82.87
\N,Dry Tortugas,24.62,24.62
\N,Dry Tortugas,24.628,82.873
MGW,Morgantown,39.64289856,-79.91629791
CRW,Charleston,38.37310028076172,-81.59320068359375
AVP,Scranton,41.3385009766,-75.72339630130001
BJI,Bemidji,47.50939941,-94.93370056
FAR,Fargo,46.92070007324219,-96.81580352783205
MKC,Kansas City,39.12319946289063,-94.5927963256836
GCC,Gillette,44.3488998413,-105.539001465
NZJ,Santa Ana,33.67610168457031,-117.7310028076172
SCE,State College Pennsylvania,40.8493003845,-77.84870147710001
MEI,Meridian,32.33259963989258,-88.75189971923828
SPI,Springfield,39.84410095,-89.67790222
CEZ,Cortez,37.3030014038,-108.627998352
HDN,Hayden,40.48120117,-107.2180023
GUP,Gallup,35.511100769,-108.789001465
LBL,Liberal,37.0442009,-100.9599991
LAA,Lamar,38.0696983337,-102.68800354
GLD,Goodland,39.37060165,-101.6989975
COD,Cody,44.520198822,-109.024002075
SGF,Springfield,37.24570084,-93.38860321
JLN,Joplin,37.151798248291016,-94.49829864501952
ABE,Allentown,40.652099609375,-75.44080352783203
XNA,Bentonville,36.281898,-94.306801
SBN,South Bend,41.70869827270508,-86.31729888916016
SMD,Fort Wayne IN,41.14339828,-85.15280151
ACV,Arcata CA,40.978101,-124.109
ATT,Austin TX,30.31666,-97.7666
OAJ,Jacksonville NC,34.8292007446,-77.61209869380001
TCL,Tuscaloosa AL,33.220600128174,-87.611396789551
DBQ,Dubuque IA,42.40200043,-90.70950317
ABR,Aberdeen,45.449100494384766,-98.42179870605467
ABY,Albany,31.535499572753903,-84.19450378417969
AHN,Athens,33.94860076904297,-83.32630157470703
ALM,Alamogordo,32.8399009705,-105.990997314
ALO,Waterloo,42.55709838867188,-92.40029907226562
ALW,Walla Walla,46.09489822,-118.288002
APN,Alpena,45.0780983,-83.56030273
ATY,Watertown,44.91400146,-97.15470123
BFD,Bradford,41.8031005859375,-78.64009857177734
BFF,Scottsbluff,41.87400055,-103.5960007
BKW,Beckley,37.7873001099,-81.1241989136
BQK,Brunswick,31.2588005065918,-81.46649932861328
BRL,Burlington,40.783199310302734,-91.12550354003906
CEC,Crescent City,41.78020096,-124.2369995
CGI,Cape Girardeau,37.22529983520508,-89.57080078125
CIU,Sault Ste Marie,46.25080108642578,-84.47239685058594
CKB,Clarksburg,39.2966003418,-80.2281036377
CLM,Port Angeles,48.12020111083984,-123.5
CMX,Hancock,47.168399810791016,-88.48909759521484
DDC,Dodge City,37.76340103149414,-99.9655990600586
DUJ,Du Bois,41.17829895,-78.8986969
EAU,Eau Claire,44.86579895019531,-91.48429870605467
EKO,Elko,40.82490158081055,-115.79199981689452
EWB,New Bedford,41.67610168457031,-70.95690155029297
FAY,Fayetteville,34.9911994934082,-78.88030242919922
GGW,Glasgow,48.212502,-106.614998
GRI,Grand Island,40.96749877929688,-98.30960083007812
HOT,Hot Springs,34.47800064086914,-93.09619903564452
HTS,Huntington,38.36669922,-82.55799866
IRK,Kirksville,40.09349822998047,-92.5448989868164
JMS,Jamestown,46.92969894,-98.67819977
LAR,Laramie,41.31209945678711,-105.6750030517578
LBE,Latrobe,40.27590179,-79.40480042
LBF,North Platte,41.12620163,-100.6839981
LEB,Lebanon,43.6260986328,-72.30419921880001
LMT,Klamath Falls,42.156101,-121.733002
LNS,Lancaster,40.121700286865234,-76.29609680175781
LWT,Lewistown,47.04930114746094,-109.46700286865234
LYH,Lynchburg,37.326698303222656,-79.20040130615234
MKG,Muskegon,43.16949844,-86.23819733
MLS,Miles City,46.428001403808594,-105.88600158691406
MSL,Muscle Shoals,34.74530029,-87.61019897
OTH,North Bend,43.41709899902344,-124.24600219726562
OWB,Owensboro,37.74010086,-87.16680145
PIB,Hattiesburg/Laurel,31.467100143432617,-89.33709716796875
PIH,Pocatello,42.9098014831543,-112.59600067138672
PIR,Pierre,44.38270187,-100.2860031
PLN,Pellston,45.57089996,-84.79669952
PSM,Portsmouth,43.0778999329,-70.8233032227
RDG,Reading,40.37850189208984,-75.96520233154297
RHI,Rhinelander,45.63119888305664,-89.46749877929688
RKS,Rock Springs,41.5942,-109.065001
RUT,Rutland,43.52939987,-72.94960022
SBP,San Luis Obispo,35.2368011475,-120.641998291
SHR,Sheridan,44.76919937133789,-106.9800033569336
SLK,Saranac Lake,44.38529968261719,-74.2061996459961
SLN,Salina,38.79100036621094,-97.6521987915039
SMX,Santa Maria,34.89889908,-120.4570007
TUP,Tupelo,34.26810073852539,-88.7698974609375
UIN,Quincy,39.94269943,-91.19460297
VCT,Victoria,28.85260009765625,-96.9185028076172
VLD,Valdosta,30.78249931335449,-83.27670288085938
WRL,Worland,43.9656982421875,-107.95099639892578
YKM,Yakima,46.56819916,-120.5439987
ADK,Adak Island,51.87799835205078,-176.64599609375
GST,Gustavus,58.4253006,-135.7070007
SGY,Skagway,59.46009826660156,-135.3159942626953
HCR,Holy Cross,62.18830108642578,-159.77499389648438
HNS,Haines,59.24380111694336,-135.5240020751953
KLG,Kalskag,61.53630065917969,-160.34100341796875
MCG,Mcgrath,62.95289993,-155.6060028
MOU,Mountain Village,62.095401763916016,-163.6820068359375
ANI,Aniak,61.58160018920898,-159.54299926757812
VAK,Chevak,61.5409,-165.6005
WRG,Wrangell,56.48429871,-132.3699951
LUP,Molokai,21.21100044,-156.973999
WKK,Aleknagik,59.2826004028,-158.617996216
BKX,Brookings,44.3048,-96.8169
BLF,Bluefield,37.29579925537109,-81.20770263671875
EAR,Kearney,40.727,-99.0068
GLH,Greenville,33.4828987121582,-90.98560333251952
IFP,Bullhead,35.1574,-114.56
IGM,Kingman,35.2595,-113.938
PSC,Pasco,46.26470184326172,-119.11900329589844
KQA,Akutan,54.1337704415,-165.778895617
SVC,Silver City,32.6365,-108.156
LPS,Lopez,48.4838981628418,-122.93800354003906
WKL,Waikoloa Village,19.9205,-155.8607
ORH,Worcester,42.26729965209961,-71.87570190429688
\N,New Rochelle,40.913923,-73.782008
ZVE,New Haven,41.298669,-72.925992
\N,Chicago,41.8791966,-87.6388507
PWT,Bremerton,47.490200042725,-122.76499938965
SPW,Spencer,43.165500640869,-95.202796936035
JEF,Jefferson City,38.5912017822,-92.1560974121
GCW,Grand Canyon West,35.5925,-113.4859
BLD,Boulder City,35.5651,-114.514
\N,Glenview,42.074197,-87.805346
\N,Baltimore,39.307408,-76.615552
PVC,Provincetown,42.0718994141,-70.2213973999
LKE,Seattle,47.629,-122.339
FUL,Fullerton,33.8720016479,-117.980003357
USA,Concord,35.387798,-80.709099
SUN,Hailey,43.50439835,-114.2959976
MCW,Mason City,43.157798767100005,-93.3312988281
AZA,Mesa,33.30780029,-111.6549988
\N,Fremont,41.3331,-83.1612
ZWU,Washington,38.89746,-77.00643
AKP,Anaktuvuk Pass,68.13359833,-151.7429962
ANV,Anvik,62.646702,-160.190994
ATK,Atqasuk,70.46730041503906,-157.43600463867188
GAM,Gambell,63.76679992675781,-171.73300170898438
HPB,Hooper Bay,61.52389908,-166.1470032
KAL,Kaltag,64.31909943,-158.7409973
KSM,St Mary's,62.0605011,-163.302002
KVL,Kivalina,67.73619842529297,-164.56300354003906
MYU,Mekoryuk,60.37139892578125,-166.27099609375
PHO,Point Hope,68.3488,-166.799
RBY,Ruby,64.72720337,-155.4700012
SHH,Shishmaref,66.249604,-166.089112
SVA,Savoonga,63.6864013671875,-170.4929962158203
WTK,Noatak,67.56610107421875,-162.97500610351562
ARC,Arctic Village,68.1147,-145.578995
KPC,Port Clarence,65.2537002563,-166.85899353
HGR,Hagerstown,39.707901,-77.72949982
SDP,Sand Point,55.31499862670898,-160.5229949951172
DRG,Deering,66.0696029663,-162.76600647
IGG,Igiugig,59.32400131225586,-155.90199279785156
KNW,New Stuyahok,59.4499015808,-157.32800293
KVC,King Cove,55.11629867553711,-162.26600646972656
PTH,Port Heiden,56.95909881591797,-158.63299560546875
TOG,Togiak Village,59.05279922485352,-160.39700317382812
ESC,Escanaba,45.7226982117,-87.0936965942
YAK,Yakutat,59.5032997131,-139.660003662
MWA,Marion,37.75500107,-89.01110077
IMT,Iron Mountain,45.8184013367,-88.1145019531
\N,Marquette,46.53390121459961,-87.5614013671875
AET,Allakaket,66.5518035889,-152.621994019
\N,East Glacier,48.443965,-113.218556
MGC,Michigan City,41.7033004761,-86.8211975098
SWD,Seward,60.12689971923828,-149.41900634765625
MXY,McCarthy,61.4370608,-142.90307372
\N,Silverton,37.812545,-107.662994
NPZ,Valparaiso,41.4539722,-87.0070833
GRM,Grand Marais,47.8382987976,-90.3828964233
MCD,Mackinac Island,45.8649344,-84.637344
IWD,Ironwood,46.5274747,-90.1313967
C47,Portage,43.5603136,-89.4828607
AUW,Wausau,44.9262008667,-89.6266021729
MQB,Macomb,40.5200833,-90.6523889
1RL,Point Roberts,48.9797222,-123.0788889
MIE,Muncie,40.2422981262207,-85.3958969116211
OXD,Oxford,39.5022607,-84.7843814
LAF,Lafayette,40.41230010986328,-86.93689727783203
DKB,De Kalb,41.9338342,-88.7056864
C02,Lake Geneva,42.6149167,-88.3895833
\N,Georgetown,38.88190078735352,-83.88269805908203
VGT,Las Vegas,36.21070098877,-115.19400024414
ENW,Kenosha,42.59569931,-87.92780304
1CS,Bolingbrook,41.6959744,-88.1292306
MTJ,Montrose CO,38.5097999573,-107.893997192
RIW,Riverton WY,43.064201355,-108.459999084
TYE,Tyonek,61.076667,-151.138056
PDT,Pendleton,45.695098877,-118.841003418
0P2,Stewartstown,39.7948244,-76.6471914
SUE,Sturgeon Bay,44.8436667,-87.4215556
CDI,Cambridge,39.9750278,-81.5775833
C91,Dowagiac,41.9929342,-86.1280125
4I7,Greencastle,39.6335556,-86.8138056
X01,Everglades,25.8488611,-81.3902778
10C,Greenwood,42.4028889,-88.3751111
UES,Waukesha,43.0410278,-88.2370556
BEH,Benton Harbor,42.1285833,-86.4285
OSH,Oshkosh,43.98440170288086,-88.55699920654297
EAT,Wenatchee,47.3988990784,-120.207000732
1OH,St. Marys,40.5553253,-84.3866186
\N,Byron,37.8284,-121.626
FWH,Dallas,32.76919937,-97.4414978
GYY,Gary,41.61629867553711,-87.41280364990234
BRD,Brainerd,46.39830017,-94.13809967
LWB,Lewisburg,37.8582992554,-80.3994979858
PGV,Greenville,35.6352005,-77.38529968
CYF,Chefornak,60.1492004395,-164.285995483
OXR,Oxnard,34.200801849365,-119.20700073242
BKG,Branson,36.532082,-93.200544
ZBP,Baltimore,39.307222,-76.615556
ZYP,New York,40.7505,-73.9935
SCH,Scotia NY,42.852500915527,-73.928901672363
UST,St. Augustine Airport,29.9592,-81.339798
STS,Santa Rosa,38.50899887,-122.8130035
ISM,Kissimmee,28.2898006439,-81.4371032715
LCQ,Lake City,30.1819992065,-82.57689666750001
\N,DeLand,29.06699944,-81.28379822
\N,Green Cove Springs,29.904057,-81.68515
LGU,Logan,41.7911987305,-111.851997375
BMC,Brigham City,41.552399,-112.061996
\N,Malad City,42.16659927368164,-112.2969970703125
ASE,Aspen,39.22320175,-106.8690033
\N,Hilton Head,32.216,-80.752
ZFV,Philadelphia,39.9557,-75.182
BWD,Brownwood,31.7936111,-98.9565
LXY,Mexia,31.6411783,-96.5144594
ERV,Kerrville,29.9766998291,-99.0857009888
GED,Georgetown,38.68920135,-75.35890198
GBD,Great Bend,38.3442993164,-98.8591995239
HYS,Hays,38.84220123,-99.27320099
SUS,Null,38.662101745605,-90.652000427246
LYU,Ely,47.82450104,-91.83070374
GPZ,Grand Rapids MN,47.21110153,-93.50980377
TVF,Thief River Falls,48.06570053,-96.18499756
EGV,Eagle River,45.9323005676,-89.26830291750001
ARV,Minocqua - Woodruff,45.92789841,-89.73090363
\N,Ankeny,41.69139862060547,-93.56639862060548
\N,Corpus Christi,27.69260025,-97.29109955
AVX,Catalina Island,33.4049,-118.416
MHV,Mojave,35.05939865,-118.1520004
KEH,Kenmore,47.7548,-122.259
HUT,Hutchinson,38.0654983521,-97.86060333250002
EGA,Eagle,39.6427611,-106.9159347
\N,Oak Lawn,41.7198242969588,-87.7488327026367
\N,Chicago,41.948958067066,-87.6587533950806
STJ,Rosecrans,39.771900177002,-94.909698486328
ZRT,Hartford,41.76888,-72.6815
ZTF,Stamford,41.046937,-73.541493
ZRP,Newark,40.734722,-74.164167
VOK,Camp Douglas,43.938999176025,-90.253402709961
GUC,Gunnison,38.53390121,-106.9329987
TOA,Torrance,33.803398132324,-118.33999633789
MBL,Manistee,44.2723999,-86.24690247
\N,Honolulu,21.318681,-157.922427
PGD,Punta Gorda,26.92020035,-81.9905014
JGC,Grand Canyon,35.96666666,-112.13333333
WFK,Frenchville,47.2854995728,-68.31279754639999
JHW,Jamestown,42.15340042,-79.25800323
SME,Somerset,37.0533981323,-84.6158981323
SHD,Weyers Cave,38.2638015747,-78.8964004517
DVL,Devils Lake,48.11420059,-98.90879822
DIK,Dickinson,46.7974014282,-102.802001953
SDY,Sidney,47.706902,-104.193001
CDR,Chadron,42.837600708,-103.095001221
AIA,Alliance,42.0531997681,-102.804000854
MCK,McCook,40.20629883,-100.5920029
MTH,Marathon,24.726101,-81.051399
GDV,Glendive,47.13869858,-104.8069992
OLF,Wolf Point,48.0945014954,-105.574996948
WYS,West Yellowstone,44.68840027,-111.1179962
ALS,Alamosa,37.434898,-105.866997
CNY,Moab,38.75500107,-109.7549973
ELY,Ely,39.29970169,-114.8420029
VEL,Vernal,40.4408989,-109.5100021
RUI,Ruidoso,33.462799072266,-105.53500366211
SOW,Show Low,34.265499115,-110.005996704
MYL,McCall,44.88970184,-116.1009979
SMN,Salmon,45.1237983704,-113.880996704
MMH,Mammoth Lakes,37.62409973,-118.8379974
FRD,Friday Harbor,48.5219993591,-123.024002075
ESD,Eastsound,48.7081985474,-122.910003662
OTS,Anacortes,48.498889,-122.6625
AST,Astoria,46.158000946,-123.878997803
ONP,Newport,44.580399,-124.057999
EMK,Emmonak,62.78609848,-164.4909973
UNK,Unalakleet,63.88840103,-160.798996
UUK,Kuparuk,70.33080291750001,-149.598007202
SHX,Shageluk,62.6922988892,-159.569000244
CHU,Chuathbaluk,61.579102,-159.216003
NUI,Nuiqsut,70.2099990845,-151.005996704
EEK,Eek,60.21367264,-162.0438843
KUK,Kasigluk,60.87440109,-162.5240021
KWT,Kwethluk,60.7902984619,-161.444000244
KWK,Kwigillingok,59.876499,-163.169005
MLL,Marshall,61.8642997742,-162.026000977
RSH,Russian Mission,61.7788848877,-161.319458008
WTL,Tuntutuliak,60.335278,-162.666944
KEK,Ekwok,59.356944,-157.471111
KGK,Koliganek,59.726600647,-157.259002686
KLL,Levelock,59.128056,-156.858611
KMO,Manokotak,58.9902000427,-159.050003052
TWA,Twin Hills,59.074444,-160.275
CIK,Chalkyitsik,66.6449966431,-143.740005493
EAA,Eagle,64.77639771,-141.151001
HUS,Hughes,66.04109955,-154.2630005
HSL,Huslia,65.69789886,-156.3509979
LIV,Livingood,65.531111,-148.541111
MNT,Minto,65.143611,-149.37
NUL,Nulato,64.729301,-158.074005
RMP,Rampart,65.507778,-150.140833
TAL,Tanana,65.179556,-152.075833
VEE,Venetie,67.0086975098,-146.365997314
WBQ,Beaver,66.362197876,-147.406997681
CEM,Central,65.57379913,-144.7830048
SHG,Shungnak,66.88809967041,-157.16200256348
KBC,Brich Creek,66.256708,-145.815319
CXF,Coldfoot,67.251389,-150.176111
IYK,Inyokern,35.65879822,-117.8300018
VIS,Visalia,36.3186988831,-119.392997742
MCE,Merced,37.28469849,-120.5139999
GYR,Goodyear,33.4225006104,-112.375999451
\N,Park City,40.659444,-111.4997222
AGN,Angoon,57.503601,-134.585007
ELV,Elfin Cove,58.1952018738,-136.347000122
TKE,Tenakee Springs,57.779722,-135.218333
PEC,Pelican,57.955278,-136.236389
CYM,Sitka,57.515,-134.946111
FNR,Funter Bay,58.2543983459,-134.897994995
EXI,Excursion Inlet,58.420556,-135.449167
HNH,Hoonah,58.0961,-135.410111
\N,Kake,56.9613990784,-133.910003662
CGA,Craig,55.478889,-133.147778
HYL,Hollis,55.481667,-132.646111
MTM,Metakatla,55.131001,-131.578003
KTB,Thorne Bay,55.688056,-132.536667
HYG,Hydaburg,55.206298828125,-132.8280029296875
WHD,Hyder,55.903333,-130.006667
KPB,Point Baker,56.351944,-133.6225
PPV,Port Protection,56.328889,-133.61
WWP,North Whale Pass,56.116389,-133.121667
KCQ,Chignik Lake,56.255,-158.775278
EGX,Egegik,58.1855010986,-157.375
KCL,Chignik Lagoon,56.311111,-158.534167
KBW,Chignik,56.295556,-158.401398
KPV,Perryville,55.905998,-159.162993
PIP,Pilot Point,57.5803985596,-157.572006226
WSN,South Naknek,58.7033996582,-157.007995605
AKK,Akhiok,56.9387016296,-154.182998657
KYK,Karluk,57.5671005249,-154.449996948
KLN,Larsen Bay,57.5350990295,-153.977996826
OLH,Old Harbor,57.218056,-153.269722
KOZ,Ouzinkie,57.922876,-152.500511
ORI,Port Lions,57.885278,-152.846111
ALZ,Lazy Bay,56.899444,-154.247778
AOS,Amook Bay,57.471389,-153.815278
KKB,Kitoi Bay,58.190833,-152.370556
KMY,Moser Bay,57.025556,-154.145833
KOY,Olga Bay,57.161389,-154.229722
KPY,Port Bailey,57.93,-153.040556
KPR,Port Williams,58.49,-152.582222
SYB,Seal Bay,58.166667,-152.5
WSJ,San Juan,57.730278,-153.320556
KWP,West Point,57.77,-153.548889
KZB,Zachar Bay,57.55,-153.75
ABL,Ambler,67.1063,-157.856989
BKC,Buckland,65.9815979004,-161.149002075
IAN,Kiana,66.9759979248,-160.43699646
OBU,Kobuk,66.9123001099,-156.897003174
ORV,Noorvik,66.81790161,-161.0189972
WLK,Selawik,66.60009766,-159.9859924
KTS,Brevig Mission,65.3312988281,-166.466003418
ELI,Elim,64.61470032,-162.2720032
GLV,Golovin,64.5504989624,-163.007003784
TLA,Teller,65.2404022217,-166.339004517
WAA,Wales,65.622593,-168.095
WMO,White Mountain,64.689201355,-163.412994385
CIL,Council,64.897778,-163.703333
KKA,Koyuk,64.9394989014,-161.154006958
SMK,St. Michael,63.49010086,-162.1100006
SKK,Shaktoolik,64.37110138,-161.223999
WBB,Stebbins,63.515833,-162.278056
TNC,Tin City,65.56310272,-167.9219971
AKB,Atka,52.22029877,-174.2059937
IKO,Nikolski,52.94160079956055,-168.8489990234375
ICY,Icy Bay,59.968889,-141.661667
CYT,Yakataga,60.080974,-142.494541
AUK,Alakanuk,62.6800422668,-164.659927368
SXP,Nunam Iqua,62.520556,-164.847778
KPN,Kipnuk,59.9329986572,-164.031005859
KFP,False Pass,54.8474006652832,-163.41000366210938
NLG,Nelson Lagoon,56.007499694824,-161.16000366211
PML,Cold Bay,56.0060005188,-160.561004639
KLW,Klawock,55.5792007446,-133.076004028
KWN,Quinhagak,59.7551,-161.845
KOT,Kotlik,63.0306015015,-163.533004761
KYU,Koyukuk,64.8760986328,-157.727005005
SCM,Scammon Bay,61.845298767100005,-165.570999146
NNL,Nondalton,59.980201721191,-154.8390045166
PDB,Pedro Bay,59.782222,-154.1325
NUP,Nunapitchuk,60.905833,-162.439167
KKH,Kongiganak,59.9608001709,-162.880996704
NIB,Nikolai,63.0186,-154.358002
TCT,Takotna,62.971944,-156.082778
PQS,Pilot Station,61.934444,-162.899444
AKI,Akiak,60.9029006958,-161.231002808
TLT,Tuluksak,61.096944,-160.969444
KGX,Grayling,62.894444,-160.065
AIN,Wainwright,70.6380004883,-159.994995117
NCN,Chenega,60.0773010254,-147.992004395
CZN,Chisana,62.071111,-142.048333
TKJ,Tok,63.32949829,-142.9539948
IRC,Circle,65.830498,-144.076008
KCC,Coffman Cove,56.014722,-132.833889
CKD,Crooked Creek,61.867778,-158.135
RDV,Red Devil,61.788056,-157.350278
SLQ,Sleetmute,61.7005004883,-157.166000366
SRV,Stony River,61.7875,-156.591111
\N,Healy,63.8661994934082,-148.968994140625
KAE,Kake,56.973056,-133.945556
\N,Klawock,55.5546989440918,-133.1020050048828
LMA,Lake Minchumina,63.886002,-152.302002
MLY,Manley Hot Springs,64.99759674069999,-150.643997192
\N,St. George,56.577222,-169.663611
TEK,Tatitlek,60.8725,-146.691111
WFB,Ketchikan,55.344444,-131.663333
\N,Lancaster,40.05,-76.31
\N,Ardmore,40.01,-75.29
\N,Iselin,40.568,-74.3275
CPS,East St. Louis,38.5707244,-90.1562211
\N,Newport News,37.0228,-76.4519
\N,Portland,45.529,-122.6768
\N,Westport,44.1871,-73.4519
\N,Trenton,40.21889,-74.75417
\N,Philadelphia,39.9969556,-75.1487722
\N,Juneau,58.571385,-134.607754
\N,Seattle,47.615884,-122.330017
\N,Juneau,58.335451,-134.414978
\N,Skagway,59.470896,-135.31723
\N,Ketchikan ,55.346327,-131.644707
MRB,Martinsburg,39.40190125,-77.98459625
RKH,Rock Hill,34.9878006,-81.05719757
AGC,Pittsburgh,40.354400634765625,-79.9301986694336
VQQ,Jacksonville,30.2187004089,-81.876701355
FTY,Atlanta,33.7790985107,-84.5214004517
\N,Four Corners,36.998976,-109.045172
60J,Ocean Isle Beach,33.9085056,-78.4366722
OSU,Columbus,40.0798,-83.072998
ADS,Addison,32.9686012268,-96.8364028931
DSI,Destin,30.40010071,-86.47149658
RBN,Fort Jefferson - Dry Tortugas,24.61667,-82.86667
ISO,Kinston,35.331401825,-77.60880279540001
FFA,Kill Devil Hills,36.0181999207,-75.67130279540001
PVU,Provo,40.219200134277,-111.72299957275
SBS,Steamboat Springs,40.5163002,-106.8659973
DTA,Delta,39.3805999756,-112.508003235
\N,Richfield,38.73640060424805,-112.0989990234375
PUC,Price,39.61389923,-110.7509995
LAM,Los Alamos,35.8797988892,-106.268997192
BXS,Borrego Springs,33.2590278,-116.3209722
HII,Lake Havasu City,34.571098,-114.358002
INW,Winslow,35.021900177,-110.722999573
DGL,Douglas,31.3425998688,-109.505996704
BOW,Bartow,27.9433994293,-81.78340148930002
LVK,Livermore,37.6934013367,-121.819999695
RMY,Mariposa,37.5108985901,-120.040000916
\N,Liskeard,50.44708,-4.46753
\N,Ketchikan,55.778889,-131.601389
TRM,Palm Springs,33.62670135498,-116.16000366211
SMO,Santa Monica,34.015800476100004,-118.450996399
UDD,Palm Springs,33.748401641846,-116.27500152588
SCF,Scottsdale,33.622898101807,-111.91100311279
OLM,Olympia,46.9693985,-122.9029999
\N,Davis-Woodland-Winters,38.57910156,-121.8570023
RIL,Rifle,39.526299,-107.726997
SAA,SARATOGA,41.444901,-106.823997
PDK,Atlanta,33.8755989075,-84.3020019531
BMG,Bloomington,39.14599990844727,-86.61669921875
SUA,Stuart,27.18169975,-80.22109985
MMU,Morristown,40.79940032958984,-74.41490173339844
APC,Napa,38.2132,-122.280998
SDM,San Diego,32.572299957275,-116.98000335693
\N,Pahokee,26.789,-80.692
VNC,Venice,27.071599960327,-82.440299987793
PHK,Pahokee,26.78499985,-80.69339752
ECP,Panama City,30.357106,-85.795414
SBD,San Bernardino,34.0954017639,-117.23500061
SQL,San Carlos,37.511901855469,-122.25
RWI,Rocky Mount,35.856300354003906,-77.89189910888672
\N,Whittier,60.77719879150391,-148.7220001220703
SXQ,Soldotna,60.47570037841797,-151.03399658203125
SEE,El Cajon,32.826198577881,-116.97200012207
\N,San Clemente Island,33.02270126,-118.5879974
TKF,Truckee,39.3199996948,-120.13999939
\N,Detroit,42.368097,-83.072397
\N,Ventura,34.27833,-119.29222
\N,Atlanta,34.01319885,-84.59860229
ONH,Oneonta,42.524722,-75.064444
\N,Dell,44.7356987,-112.720001221
LVM,Livingston-Montana,45.6994018555,-110.447998047
\N,Big Timber,45.806400299072266,-109.9810028076172
\N,Holland,42.742900848389,-86.107398986816
GMV,Monument Valley,37.0167007446,-110.200996399
JRA,New York,40.754501,-74.007103
LAL,Lakeland,27.988899,-82.018602
\N,Fort Lauderdale,26.0882,-80.115373
\N,Miami,25.779701,-80.177279
\N,Los Angeles,33.747198,-118.276856
\N,Kailua Kona Hawaii,19.635393,-155.998328
\N,Nawiliwili Kauai Hawaii,21.954549,-159.355981
\N,Hilo Hawaii,19.730967,-155.054094
\N,Honolulu Oahu,21.301185,-157.865671
\N,Lahaina Maui Hawaii,20.876456,-156.683235
\N,Seattle WA,47.611241,-122.350026
\N,New York,33.485699,-90.678902
RBK,Murrieta-Temecula,33.5741996765,-117.127998352
\N,Anchorage Alaska,61.221749,-149.890852
\N,Seward Alaska,60.121586,-149.439983
\N,Port Clinton,41.516300201416016,-82.86869812011719
MGY,Dayton,39.5890007019,-84.224899292
\N,Richmond,39.75719833374024,-84.8427963256836
FDY,Findley,41.0135002136,-83.66870117190001
SPF,Spearfish-South Dakota,44.48030090332,-103.78299713135
OLV,Olive Branch,34.9786987305,-89.78690338130001
BJC,Broomfield-CO,39.90879822,-105.1169968
\N,Minot,48.2361,-101.2987
\N,Havre,48.55457,-109.67836
\N,Wishram,45.6576,-120.9664
SLE,Salem,44.90950012,-123.0029984
UTM,Tunica,34.680999755859,-90.346702575684
MWC,Milwaukee,43.110401,-88.034401
JVL,Janesville,42.620300293,-89.0416030884
\N,Arlington,32.66389846801758,-97.09429931640624
LZU,Lawrenceville,33.97809982,-83.96240234
BWG,Bowling Green,36.9645004272,-86.41970062259999
RVS,Tulsa,36.039600372314,-95.984596252441
\N,Emeryville,37.8405149,-122.29134
\N,Bakersfield,35.372159,-119.008393
BCE,Bryce Canyon,37.706401825,-112.144996643
\N,Burlington,36.04850006103516,-79.47489929199219
JCI,Olathe,38.8308982849,-94.890296936
ESN,Easton,38.8041992188,-76.06900024410001
R49,Republic,48.7182058,-118.6564714
MYV,Yuba City,39.09780121,-121.5699997
DUC,Duncan,34.47090149,-97.9598999
\N,New York,40.75616,-73.9906
E91,Chinle,36.1108806,-109.5754222
UVA,Uvalde,29.2112998962,-99.743598938
LOT,Lockport,41.6072998,-88.09619904
C16,Urbana,40.144979,-88.200197
CCR,Concord,37.9897003174,-122.056999207
OCA,Ocean Reef Club Airport,25.325399398804,-80.274803161621
\N,Denver,39.753187,-105.000093
\N,DELETE,-1.1111,-1.1111
ATO,Athens,39.2109985352,-82.23139953610001
SGH,Springfield,39.840301513672,-83.840202331543
MPB,Miami,25.7783,-80.1703
TOP,Topeka,39.068698883057,-95.622497558594
\N,Emporia,38.3321,-96.1912
\N,Uvalde,29.229400634765625,-99.82389831542967
\N,Null,37.610022,-86.507262
MQY,Smyrna,36.0089988708,-86.5201034546
UOS,Sewanee,35.205101013184,-85.898101806641
\N,DALLAS,33.17789841,-96.59049988
PWK,Chicago-Wheeling,42.114222,-87.901494
KLS,Kelso,46.11800003049999,-122.898002625
3W2,Put-in-Bay,41.3521,-82.497
\N,Glenwood Springs,39.548,-107.3233
\N,Grand Junction,39.0646,-108.5705
\N,Reno,39.5287,-119.8116
\N,Sacramento,38.584791,-121.500517
TWD,Port Townsend,48.0314,-122.4838
38W,Lynden,48.9558961,-122.4581183
0S9,Port Townsend,48.0538086,-122.8106436
\N,Boston,42.35,-71.0558
ZRD,Richmond,37.5343,-77.42945
ILN,Wilmington,39.427898407,-83.792098999
AVW,Tucson,32.4095993042,-111.218002319
CGZ,Casa Grande,32.954899,-111.766998
\N,Mobile,33.111900329589844,-112.2689971923828
BXK,Buckeye,33.42039871,-112.685997
\N,Gila Bend,32.95809937,-112.6780014
MMI,Athens,35.39730072,-84.56259918
STK,Sterling,40.61529922,-103.2649994
RWL,Rawlins,41.80559921,-107.1999969
CDW,Caldwell,40.875198364300005,-74.2814025879
AIZ,Kaiser Lake Ozark,38.0960006714,-92.54949951170002
L35,Big Bear,34.2637778,-116.8560278
\N,Los Angeles,34.056111,-118.234167
TVI,Thomasville,30.901599884033,-83.881301879883
HSH,Henderson,35.9728012085,-115.134002686
TMA,Tifton,31.4290008545,-83.4885025024
\N,Savannah,32.08558,-81.097559
\N,CHARLESTON,32.781081,-79.92364
\N,NEW YORK,40.767681,-73.999107
DVT,Phoenix ,33.6883010864,-112.083000183
FRG,Farmingdale,40.7288017273,-73.4133987427
\N,Seattle,47.5985,-122.3299
\N,Hondo,29.35950088501,-99.176696777344
\N,Milwaukee,42.940556,-87.924722
\N,Springfield,39.8023,-89.6515
\N,St. Louis,38.6241,-90.2056
\N,Camarillo,34.2164,-119.0335
\N,Seattle,47.6005,-122.3388
\N,Bremerton,47.5619,-122.625
MCL,McKinley Park,63.7326011658,-148.910995483
\N,Anchorage,61.186946,-149.965442
PPC,Prospect Creek,66.814102172852,-150.64399719238
HCC,Hudson NY,42.2913,-73.7103
HLG,Wheeling,40.1749992371,-80.6463012695
\N,Fitzgerald,31.68370056152344,-83.27050018310547
40J,Perry,30.0692778,-83.5805833
70J,Cairo,30.8879767,-84.1547353
RKP,Rockport,28.0867996216,-97.0446014404
\N,Cordele,31.98880005,-83.77390289
\N,Ormond Beach,29.300600051879883,-81.11360168457031
TTD,Troutdale,45.54940032959,-122.40100097656
HIO,Hillsboro,45.540401,-122.949997
\N,New York,40.71260070800781,-73.99960327148438
24J,Live Oak,30.300125,-83.0246944
\N,Bend,44.09479904,-121.2009964
\N,Christmas Valley,43.23649978637695,-120.66600036621094
BNO,Burns,43.5918998718,-118.955001831
PRZ,Prineville,44.286998748779,-120.90399932861
RBL,Red Bluff,40.1506996155,-122.251998901
NOT,Novato,38.143600463867,-122.55599975586
LKV,Lakeview,42.1610984802,-120.399002075
OTK,Tillamook,45.4182014465,-123.814002991
ONO,Ontario,44.020500183105,-117.01399993896
DLS,The Dalles,45.6184997559,-121.166999817
GAI,Gaithersburg,39.1683006287,-77.1660003662
\N,Cincinnati,39.109961,-84.537074
\N,Cleveland,41.50225,-81.62233
\N,Charelvoix,45.3047981262207,-85.2748031616211
2J9,Quincy,30.5978708,-84.557425
MGR,Moultrie,31.0849167,-83.80325
RCE,Roche Harbor,48.608056,-123.159722
BYW,Blakely Island,48.56025,-122.80243
RSJ,Rosario,48.645556,-122.868056
WSX,Westsound,48.617778,-122.952778
FBS,Friday Harbor,48.537222,-123.009722
L06,Death Valley National Park,36.273,-116.515
\N,Flagler,29.4674,-81.206299
MVL,Morrisville,44.53459930419999,-72.6139984131
RBD,Dallas,32.6809005737,-96.8682022095
6Y8,Beaver Island,45.721111,-85.520278
WST,Washington County,41.3496017456,-71.8033981323
BID,Block Island,41.1680984497,-71.577796936
\N,Atmautluak,60.866667,-162.273056
\N,Atmautluak,60.866667,-162.273056
369,Atmautluak,60.866667,-162.273056
NME,Nightmute,60.471000671387,-164.70100402832
OOK,Toksook Bay,60.54140091,-165.0870056
TNK,Tununak,60.575556,-165.271667
GNU,Goodnews Bay,59.1175,-161.5775
WWT,Newtok,60.939167,-164.641111
BGE,Bainbridge,30.9715004,-84.63739777
\N,Silver Springs,39.40299987792969,-119.2509994506836
WHP,Los Angeles,34.2593002319,-118.413002014
MAE,Madera,36.9886016846,-120.111999512
U76,Mountain Home,43.1316111,-115.7305671
19A,Jefferson,34.1758638,-83.5615972
AAF,Apalachicola,29.72750092,-85.02749634
SGJ,St. Augustine,29.95925,-81.3397222
\N,Douglas,31.47669982910156,-82.8604965209961
FPR,Fort Pierce,27.49510002,-80.36830139
\N,Taunton,41.8744010925293,-71.0166015625
PYM,Plymouth,41.909,-70.728798
NCO,North Kingstown,41.597099304199,-71.412101745605
1B9,Mansfield,42.0001331,-71.1967714
OWD,Norwood,42.1904983521,-71.1728973389
BAF,Westfield,42.157799,-72.715599
\N,Willimantic,41.74399948120117,-72.1802978515625
MGJ,Montgomery,41.50999832,-74.26460266
HAR,Harrisburg,40.2170982361,-76.85150146480001
\N,Marshfield,42.09830093383789,-70.67220306396484
DXR,Danbury,41.3714981079,-73.48220062259999
ASH,Nashua,42.7817001343,-71.51480102539999
LWM,Lawrence,42.7172012329,-71.1233978271
OXC,Oxford,41.47859954834,-73.135200500488
\N,Fitchburg,42.55410003662109,-71.75900268554688
\N,Villa Rica,33.7565002441,-84.88469696039999
\N,Cartersville,34.12310028076172,-84.84870147705078
\N,Centre,34.089977,-85.610069
RMG,Rome,34.3506011963,-85.15799713130001
GAD,Gadsden,33.972599,-86.088996
\N,Knoxville,35.96390151977539,-83.8739013671875
WDR,Winder,33.98289871,-83.66739655
\N,Sylvania,32.645301818847656,-81.59709930419922
DNN,Dalton,34.72290039,-84.87020111
\N,Carrollton,33.63100051879883,-85.1520004272461
4A9,Fort Payne,34.4736944,-85.7213889
LGC,LaGrange,33.0089,-85.072601
\N,Milledgeville,33.154202,-83.240701
4A4,Cedartown,34.0186944,-85.1464722
PIM,Pine Mountain,32.8406982422,-84.8824005127
\N,Atlanta,33.3572998046875,-84.5718002319336
9A1,Covington,33.6323083,-83.8474472
GVL,Gainesville,34.27259827,-83.8302002
\N,Canton,34.3122175,-84.4221556
54J,DeFuniak Springs,30.7311111,-86.1537778
9A5,LaFayette,34.6884792,-85.2903319
PHD,New Philadelpha,40.470901489258,-81.419700622559
\N,Darlington,34.449401,-79.890098
HHH,Hilton Head Island,32.2243995667,-80.6975021362
49A,Ellijay,34.6282222,-84.5265833
0A9,Elizabethton,36.3712222,-82.1734167
06A,Tuskegee,32.4605722,-85.6800278
DNL,Augusta,33.4664993286,-82.0393981934
MRN,Morganton,35.820202,-81.611397
PVL,Pikeville,37.5617981,-82.56639862
\N,Locust Grove,33.365699768066406,-84.16519927978516
TOC,Toccoa,34.59379959,-83.29579926
VDF,Tampa,28.0139772,-82.3452778
AFW,Fort Worth,32.9875984192,-97.3188018799
\N,East Troy,42.79719924926758,-88.37259674072266
MYF,San Diego,32.4759,117.759
LWC,Lawrence,39.01119995,-95.21659851
\N,Wellington,37.32360076904297,-97.38829803466795
6A2,Griffin,33.2269722,-84.2749444
PPM,Pompano Beach,26.247100830078,-80.111099243164
\N,Washington DC,38.90339,-77.00583
\N,Alabaster,33.17699814,-86.78279877
\N,Carefree,33.81809997558594,-111.89800262451172
\N,Indianapolis,39.93519974,-86.04499817
LOZ,London,37.0821990967,-84.08489990230001
\N,Baltimore,39.2837181,-76.621634
FBG,Fredericksburg,35.13180161,-78.93669891
\N,Buffalo,42.883512,-78.87205
\N,Seattle,47.5985,-122.3299
\N,Palatka,29.649178,-81.640456
RAC,Racine,42.7606010437,-87.8152008057
\N,Redlands,34.08530044555664,-117.14600372314452
49X,Chemehuevi Valley,34.528889,-114.431971
\N,Riverside,33.98970031738281,-117.41100311279295
TIW,Tacoma,47.26789856,-122.5780029
X39,Tampa,28.221278,-82.374555
\N,COOKSON,35.705541,-94.933605
GUF,Gulf Shores,30.29050064,-87.67179871
\N,Annapolis,38.972944,-76.501158
HZL,Hazleton,40.9868011475,-75.9949035645
CBE,Cumberland,39.615398407,-78.7609024048
\N,Key West,24.648799896240234,-81.57980346679688
LNR,Lone Rock,43.2117004395,-90.181602478
\N,Phillips,45.70899963378906,-90.40249633789062
\N,Monroe,42.61489868164063,-89.59040069580078
JOT,Joliet,41.51779938,-88.17549896
VYS,Peru,41.351898,-89.153099
JXN,Jackson,42.2597999573,-84.45939636230001
\N,Connellsville,39.95920181,-79.65709686
\N,Bedford,40.08530045,-78.5121994
BBX,Philadelphia,40.1375007629,-75.2650985718
OBE,Okeechobee,27.2628002167,-80.8498001099
SEF,Sebring,27.45639992,-81.3423996
AVO,Avon Park,27.59119987,-81.52780151
GIF,Winter Haven,28.062901,-81.753304
ZPH,Zephyrhills,28.2282009125,-82.15589904790001
OCF,Ocala,29.17259979,-82.22419739
\N,Jesup,31.55400085,-81.88249969
\N,Madison,33.6120986938,-83.46040344240001
\N,Newnan,33.31159973144531,-84.7697982788086
\N,Thomson,33.52970123,-82.51650238
AIK,Aiken,33.649399,-81.684998
CDN,Camden,34.2835998535,-80.56490325930001
LBT,Lumberton,34.6099014282,-79.05940246579999
3J1,Ridgeland,32.4934167,-80.99175
SOP,Pinehurst-Southern Pines,35.23740005,-79.3911972
\N,Rockingham,34.8913,-79.759598
99N,Bamberg,33.3045278,-81.1084167
93C,Richland Center,43.2833575,-90.2982819
Y51,Viroqua,43.5793603,-90.8964742
\N,Baraboo,43.52270126,-89.77020264
7A4,Apple River,42.4664444,-90.1693889
SVH,Statesville,35.765300750732,-80.953903198242
C89,Sturtevant,42.70325,-87.9589722
\N,Burlington,42.69070053100586,-88.30460357666016
N53,East Stroudsburg,41.0358717,-75.1606789
70N,Sterling,41.3473569,-75.4158972
06N,Middletown,41.431912,-74.3915611
LHV,Lock Haven,41.13560104,-77.42230225
29D,Grove City,41.1460278,-80.16775
04G,Youngstown,41.1304722,-80.6195833
3G3,Wadsworth,41.0031572,-81.7564401
3G4,Ashland,40.9029722,-82.2556389
4G0,Monroeville,40.4526389,-79.7749167
\N,Zelienople,40.80160141,-80.16069794
2G9,Somerset,40.0388708,-79.0149951
4G4,Youngstown,40.9617953,-80.6773264
41N,Braceville,41.2111675,-80.9692572
\N,Lorain-Elyria,41.34429932,-82.17759705
7D9,Geneva,41.7778322,-80.9039797
BKL,Cleveland,41.51750183105469,-81.68329620361328
DKK,Dunkirk,42.49330139,-79.27200317
4G2,Hamburg,42.7008925,-78.9147569
N87,Trenton,40.2139444,-74.6017778
LLY,Mount Holly,39.9429016113,-74.845703125
7N7,Pedricktown,39.7355633,-75.3977211
LDJ,Linden,40.617401123,-74.2445983887
O03,Morgantown,40.1570414,-75.8704892
0W3,Churchville,39.5668378,-76.2024028
ANQ,Angola,41.639702,-85.083504
C65,Plymouth,41.3651307,-86.3002574
\N,Warsaw,41.27470016479492,-85.84010314941406
\N,Van Wert,40.86470031738281,-84.6093978881836
17G,Bucyrus,40.7815556,-82.9748056
X07,Lake Wales,27.8938056,-81.6203889
\N,Marshall,42.25120162963867,-84.95549774169922
\N,Batavia,43.03170013,-78.16760254
0G7,Seneca Falls,42.8835647,-76.7812318
N69,Stormville,41.5769708,-73.7323514
4B8,Plainville,41.6893333,-72.8646944
0G6,Bryan,41.4673056,-84.5067778
CLW,Clearwater,27.9766998291,-82.7586975098
X49,Lakeland,27.9333581,-82.0439739
NYC,New York,40.714167,-74.005833
CHI,Chicago,41.883611,-87.631667
CGX,Chicago,41.85879898071289,-87.60790252685547
WAS,Washington,38.889444,-77.035278
\N,Jasper,34.453399658203125,-84.4573974609375
CRE,North Myrtle Beach,33.8116989136,-78.72389984130001
\N,Lansing,41.5349006652832,-87.52950286865234
Y72,Tomah,43.9762222,-90.4806111
\N,Ramona,33.0392,-116.915001
\N,Coldwater,41.9333992,-85.05259705
WBW,Wilkes-Barre,41.2971992493,-75.8511962891
LNN,Willoughby,41.6839981079,-81.3897018433
FFT,Frankfort,38.18249893,-84.90470123
LEW,Lewiston,44.048500061,-70.2835006714
6S2,Florence,43.9828168,-124.1113687
1A3,Copperhead,35.0158056,-84.3468333
NBU,Glenview,42.090556,-87.8225
\N,Tomah,43.97499847,-90.48349762
MRK,Marco Island Airport,25.995001,-81.672501
DRE,Drummond Island,46.0093002319,-83.74389648440001
8M8,Lewiston,44.8065278,-84.2761944
GDW,Gladwin,43.9706001282,-84.47499847410002
24C,Lowell,42.95392,-85.3439058
\N,South Haven,42.351200103759766,-86.25569915771484
06C,Schaumburg,41.9893408,-88.1012428
MFI,Marshfield,44.6369018555,-90.1893005371
ISW,Wisconsin Rapids,44.3602981567,-89.83899688720001
CWI,Clinton,41.8311004639,-90.3291015625
BVY,Beverly,42.5842018127,-70.91649627689999
O27,Oakdale,37.7563333,-120.8001944
POF,Poplar Bluff,36.773899078369,-90.324897766113
\N,Somerville,40.6259994506836,-74.67019653320312
\N,Eastport,44.910099029541016,-67.01270294189453
EOK,Keokuk,40.4598999023,-91.4284973145
ME5,Swans Island,44.1653889,-68.4281667
STP,St. Paul,44.93450164794922,-93.05999755859376
E51,Bagdad,34.5958528,-113.170195
\N,Oconomowoc,43.13890075683594,-88.47229766845703
E55,Gualala,38.8016111,-123.5306389
1G3,Kent,41.1513889,-81.4151111
HAO,Hamilton,39.3638000488,-84.5220031738
ZRA,Atlantic City NJ,39.3665,-74.442
ZSF,Springfield MA,42.106,-72.593054
XZK,Amherst MA,42.375,-72.511389
\N,Cape May NJ,38.9696286,-74.960918
\N,Lewes DE,38.781655,-75.119534
\N,Bar Harbor ME,44.39917,-68.225
\N,St. Ignace MI,45.866405,-84.720254
\N,Mackinac Island MI,45.848801,-84.615927
FLD,Fond du Lac,43.7711982727,-88.48840332030001
\N,Waupaca,44.33330154,-89.01979828
STE,Stevens Point,44.5452003479,-89.530296325684
\N,Newberry,46.31119918823242,-85.4572982788086
25D,Forest Lake,45.2477456,-92.9943853
GQQ,Galion,40.7533988953,-82.7238006592
CKV,Clarksville,36.6218986511,-87.4150009155
LPC,Lompoc,34.665599823,-120.468002319
CTH,Coatesville,39.97900009,-75.8655014
LKP,Lake Placid,44.2644996643,-73.96189880370001
NY9,Long Lake,43.9750617,-74.42044
WIH,Wishram,45.6576,-120.9664
AOH,Lima,40.706902,-84.026703
SSI,Brunswick,31.15180016,-81.39129639
BFP,Beaver Falls,40.7724990845,-80.39140319820001
F57,Winterhaven,28.0575,-81.7628056
GGE,Georgetown,33.3116989136,-79.3196029663
HDI,Cleveland,35.22010040283203,-84.8323974609375
2A0,Dayton,35.48625,-84.9310833
2G2,Steubenville,40.3602179,-80.7008742
RNT,Renton,47.4930992126,-122.216003418
POC,La Verne,34.091598510742,-117.78199768066
09J,Jekyll Island,31.0744722,-81.4277778
CDK,Cedar Key,29.1342222,-83.0504722
CTY,Cross City,29.6354999542,-83.10479736330001
CEU,Clemson,34.6719017,-82.8864975
36U,Heber,40.4818056,-111.4288056
BEC,Wichita,37.6944999695,-97.21499633790002
47A,Canton,34.3122175,-84.4221556
55J,Fernandina Beach,30.6118333,-81.4611944
\N,Calhoun,34.45539856,-84.93920135
\N,Cornelia,34.49990082,-83.55670166
\N,Georgetown,30.678800582885746,-97.6793975830078
\N,Rhinebeck,41.9715004,-73.86289978
SNY,Sidney,41.10129929,-102.9850006
\N,Luray,38.666944,-78.500556
W13,Waynesboro,38.076944,-78.944167
JRF,Kapolei,21.3074,-158.070009
\N,Sausalito,37.87856,-122.512742
ECA,East Tawas,44.312801,-83.422302
\N,Huntsville,34.8614006,-86.55750275
\N,Leesburg,39.077999,-77.557503
\N,Anoka,45.145,-93.211401
\N,Williamson,43.234699,-77.121
CLC,Clear Lake City,29.5569,-95.137497
WBU,Boulder,40.0393981934,-105.225997925
PAO,Palo Alto,37.461101532,-122.114997864
MSC,Mesa,33.4608001709,-111.727996826
\N,Cooldige,32.9359016418457,-111.427001953125
\N,Cottonwood,34.7299995422,-112.035003662
\N,Phoenix,32.990806,-111.918528
\N,Wickenburg,33.96889877,-112.7990036
PTK,Pontiac,42.665500640869,-83.420097351074
EEN,Keene,42.898399353027344,-72.27079772949219
\N,Glasgow,48.42110061645508,-106.52799987792967
\N,Albany,42.641389,-73.741111
\N,Tacoma,47.242733,-122.42041
\N,Orlando,28.5259,-81.3813
\N,Healy,63.7306,-148.913733333333
EQY,Charlotte,35.01833,-80.62001
IOW,Iowa City,41.6391983032,-91.5465011597
\N,Windom,43.91339874267578,-95.1093978881836
\N,Longview,44.66170120239258,-119.6520004272461
ANP,Annapolis,38.942902,-76.568398
PEQ,Pecos,31.382400512695,-103.51100158691
HBG,Hattiesburg,31.26479912,-89.25279999
YKN,Yankton,42.916698455811,-97.385902404785
SES,Selma Alabama,32.4404,-86.9522
1C9,Hollister,54.013333333333335,-124.76833333333332
HWD,Hayward,37.659198761,-122.122001648
\N,Pittsburgh,40.4406,-79.9961
\N,Raton,36.9033,-104.4386
ARB,Ann Arbor,42.2229995728,-83.74559783939999
\N,Fairbanks,64.5109,-147.4445
\N,Denali,63.43083,-150.31111
\N,Talkeetna,62.18934,-150.06177
\N,Anchorage,61.1318,-149.5326
\N,Whittier,60.774174,-148.677649
ZTY,Boston,42.3478,-71.075
\N,Niagara Falls,43.1135,-79.0318
\N,Hampton,33.389099,-84.332397
\N,Denver,39.779255,-104.88184
NGZ,Alameda,37.78889846801758,-122.31999969482422
\N,Buffalo,42.8783,-78.8738
ZWI,Wilmington,39.736667,-75.551667
\N,Elkhart,41.719444,-86.003333
\N,Salt Lake City,-17.91360092163086,-64.5177993774414
\N,San Diego,32.903,-117.225
\N,San Diego,32.716944,-117.168611
IMM,Immokalee ,26.43320084,-81.40100098
\N,Cambria,35.60770034790039,-121.11000061035156
\N,Brevard County,28.4113919,-80.6081066
ZRZ,New Carrollton,38.948,-76.8719
\N,Walkersville,39.48618333333334,-77.35475
\N,Seattle,47.613801,-122.354019
PTB,Petersburg,37.183799743652,-77.507400512695
SBM,Sheboygan,43.76959991,-87.85140228
3D2,Ephraim,45.1354167,-87.1879444
\N,Frederick,39.4449,-77.4012
MZJ,Marana,32.5106010437,-111.32800293
\N,Glendale,33.52690124511719,-112.29499816894533
SAD,Safford,32.85480118,-109.6350021
\N,Dania Beach,26.061933,-80.16565
\N,Deerfield Beach,26.316944,-80.122222
SIK,Sikeston,36.898899078369,-89.561798095703
L52,Oceano,35.10147222,-120.62236111
GFL,Queensbury,43.3412017822,-73.6102981567
\N,Ballston Spa,43.05130005,-73.86119843
K27,Mechanicville,42.893133,-73.66845
\N,Crystal River,28.867300033569336,-82.57129669189453
MTN,Baltimore,39.325699,-76.413803
\N,Lincoln,38.90919876098633,-121.35099792480467
\N,Fostoria,41.19079971,-83.39450073
FRY,Fryeburg,43.9911003113,-70.9478988647
\N,Placida,26.85449981689453,-82.2511978149414
NEW,New Orleans,30.042400360107,-90.028297424316
COE,Coeur d'Alene,47.77429962,-116.8199997
BMT,Beaumont,30.0706996918,-94.21579742430002
DNV,Danville,40.19919968,-87.59590149
\N,Dearborn,42.312222,-83.198611
COI,Cocoa,28.3416111,-80.6854722
X59,Valkaria,27.9608611,-80.5583333
TIX,Titusville,28.514799118042,-80.799201965332
X26,Sebastian,27.81325,-80.4955833
1H2,Effingham,39.07,-88.534
AAP,Houston,29.7224998474,-95.5883026123
FCM,Eden Prairie,44.8272018433,-93.4570999146
OJC,Olathe,38.84759903,-94.73760223
\N,Marshall,44.4469,95.7883
X04,Orlando,28.707222,-81.581667
\N,West Goshen Township,39.9901008605957,-75.58190155029297
MNZ,Manassas,38.72140121,-77.51540375
LJN,Angleton,29.1086006165,-95.462097168
\N,Johnstown,40.3297222,-78.9222222
\N,Snohomish WA,47.904451,-122.102529
UT3,Hanksville,37.8916547,-110.3840289
\N,Santa Barbara,34.413611,-119.691667
\N,Eugene,44.055062,-123.092372
\N,Shelbyville,39.4104003906,-88.8453979492
\N,Champaign,40.1155,-88.2411
\N,Mattoon,39.4828,-88.3759
1G4,Peach Springs,35.899904,-113.815674
\N,Boston,42.366235,-71.061122
\N,Rockport,42.6558328,-70.6266667
\N,Salem,42.5249995,-70.8958333
\N,Salem,42.522421,-70.881607
\N,Boston,42.36024,-71.048105
\N,Joliet,41.5244,-88.0795
\N,New Lenox,41.485,-87.9596
\N,Chicago,41.875,-87.632
\N,Norfolk,36.843233,-76.275952
\N,Gloucester,42.61666666666667,-70.66833333333334
\N,Johnstown,40.3296,-78.9219
\N,Enumclaw,47.19570159912109,-122.02200317382812
9G1,Tarentum,40.6035463,-79.8261189
\N,New York,40.752726,-73.977229
\N,New York,40.847301,-73.89955
2B2,Newburyport,42.7953611,-70.8394444
\N,Brooks Camp,58.556539,-155.777311
LKK,Kulik Lake,58.96591,-155.108089
PTA,Port alsworth,60.201681,-154.325863
\N,Winnsboro,34.31549835205078,-81.10880279541016
\N,Rochester,43.28409957885742,-70.9292984008789
PRL,Port Oceanic,60.2083333,-147.8194444
EWK,Newton,38.0582008362,-97.2744979858
TZR,Columbus,46.39310073852539,17.917499542236328
W04,Ocean Shores,46.5995,-124.0854
55S,Packwood,46.3625,-121.4067
FBR,Fort Bridger,41.3918991089,-110.406997681
\N,Prosser,46.21340179,-119.7910004
CLS,Chehalis,46.6769981384,-122.983001709
\N,Mattawa,46.687401,-119.920998
S30,Lebanon,44.3179,-122.5577
EVW,Evanston,41.27479935,-111.0350037
\N,Sabetha,39.90420150756836,-95.77940368652344
\N,Mount Pleasant,32.89780045,-79.78289795
\N,Americus,32.110802,-84.188904
EUF,Eufala,31.9512996674,-85.1288986206
\N,Saluda,33.92679977416992,-81.79460144042969
MEO,Manteo,35.91899872,-75.69550323
AUO,Auburn,32.615101,-85.433998
\N,Endicott,42.078499,-76.096296
\N,Kendall,25.603889,-80.585556
\N,Bessemer,33.31290054,-86.92590332
\N,Ellicott,38.8744010925293,-104.41000366210938
\N,Depew,42.9074,-78.7266
\N,South Bend,41.678,-86.2876
\N,Michigan City,41.7133,-86.8677
\N,Chicago,41.8837,-87.623
\N,St. Louis,38.6239,-90.2039
\N,Kansas City,39.0865,-94.586
\N,Albuquerque,35.0826,-106.6474
\N,San Francisco,37.7763884,-122.3944444
\N,Oakland,37.7935,-122.2719
\N,Mountain View,37.3943934,-122.075872
\N,San Mateo,37.5683328,-122.3241667
\N,Sunnyvale,37.3786106,-122.0308333
\N,Millbrae,37.6002772,-122.3866667
\N,Cleveland,41.5034,-81.6822
\N,Crystal,45.0620002746582,-93.35389709472656
\N,Quitman,32.0849,-88.738897
DBN,Dublin,32.56439972,-82.98529816
\N,New York,40.756667,-73.991111
\N,Allentown,40.605604,-75.462384
\N,Binghamton,42.101438,-75.910431
\N,Syracuse,43.0767,-76.1691
UCA,Utica,43.104167,-75.223333
\N,Clinton,43.048889,-75.380278
\N,Williamsport,41.239395,-77.000245
\N,Wilkes-Barre,41.243958,-75.882365
\N,Hazelton,40.954055,-75.976102
\N,Lewisburg,40.963889,-76.888056
\N,Madison,40.757028,-74.415194
\N,Maplewood,40.731111,-74.275556
\N,Harrisburg,40.26223,-76.878709
\N,Poughkeepsie,41.706516,-73.937774
\N,Fort Lauderdale,26.087679,-80.115942
\N,Summit,40.716556,-74.35775
CVO,Corvallis,44.49720001,-123.2900009
\N,Scranton,-35.96055603027344,-71.7933349609375
\N,New Brunswick,40.496432,-74.446447
\N,Trenton,40.218839,-74.754279
\N,Philadelphia,40.032679,-75.023718
\N,White Plains,41.032549,-73.775069
\N,Southeast,41.413179,-73.623551
\N,San Diego,32.716861,-117.174296
\N,Anacortes,48.50728,-122.677596
\N,Friday Harbor,48.535673,-123.014044
\N,Morristown,10.06666660308838,-84.88333129882812
\N,Seattle,47.609178,-122.350605
\N,Whittier,60.776566,-148.683367
\N,Valdez,61.123976,-146.365309
\N,Bainbridge Island,47.622237,-122.509362
DHB,Deer Harbor,48.618397,-123.00596
OLT,San Diego,32.7552,-117.1995
OGD,Ogden,41.195899963379,-112.0120010376
\N,Poteau,35.02159881591797,-94.62129974365234
AKO,Akron,40.1755981445,-103.222000122
SHN,Shelton,47.233600616455,-123.14800262451
\N,Erie,42.120847,-80.082444
\N,Cleveland,41.505787,-81.696172
\N,Elkhart,41.680748,-85.971848
\N,Waterloo,41.431714,-85.025659
\N,Toledo,41.638345,-83.541721
\N,Sandusky,41.440671,-82.717866
\N,Elyria,41.370033,-82.096685
\N,Alliance,40.921275,-81.092904
\N,Paoli,40.042754,-75.48376
\N,Elizabethtown,40.147028,-76.612234
\N,Lewiston,40.588309,-77.580047
\N,Huntingdon,40.483665,-78.01178
\N,Tyrone,40.667749,-78.240573
\N,Altoona,40.514475,-78.40162
\N,Latrobe,40.317405,-79.385083
\N,Greensburg,40.304986,-79.546893
\N,Williamsburg,37.276531,-76.708589
\N,Richmond,37.6179667,-77.4968078
\N,Ashland,37.759596,-77.481304
\N,Quantico,38.521882,-77.293027
\N,Alexandria,38.806503,-77.06233
\N,Port Jefferson,40.947849,-73.070058
\N,Bridgeport,41.175188,-73.185591
\N,Bridgeport,41.178006,-73.187539
\N,Stratford,41.194286,-73.131566
\N,Milford,41.223231,-73.057647
\N,West Haven,41.27142,-72.963488
\N,Fairfield,41.161,-73.234336
\N,Fairfield,41.143077,-73.257742
\N,Westport,41.118928,-73.371413
\N,Norwalk,41.09673,-73.421132
\N,Darien,41.076913,-73.472966
\N,New York,40.805157,-73.939149
\N,Hammond,41.691155,-87.506511
\N,Michigan City,41.721103,-86.905385
\N,New Buffalo,41.796656,-86.745782
\N,Niles,41.837412,-86.252372
\N,Dowagiac,41.980941,-86.109041
\N,Kalamazoo,42.295255,-85.584018
\N,Battle Creek,42.318189,-85.187534
\N,Jackson,42.248113,-84.39967
\N,Ann Arbor,42.287692,-83.743154
\N,Raleigh,35.7751,-78.6441
\N,Las Vegas,36.171167,-115.147574
\N,Irvine,33.6568,-117.7335
\N,St. Louis,38.6242,-90.2035
\N,Asheville,35.605361,-82.536137
\N,Key West,24.561193,-81.80108
\N,Manteo,35.922944,-75.697289
\N,Snowshoe,38.4089,-79.9947
\N,Ghent,37.59,-81.115
\N,Bryson City,35.3312,-83.5918
WNA,Napakiak,60.69029998779297,-161.97900390625
DJN,Delta Junction,64.050556,-145.717222
SVS,Stevens Village,66.016944,-149.054444
KKI,Akiachak,60.906111,-161.426944
4A2,Atmautluak,60.866667,-162.273056
PKA,Napaskiak,60.70289993,-161.7779999
KCG,Chignik,56.317778,-158.590833
\N,Tok,63.303333,-143.001111
\N,Rockford,42.268635,-88.966004
\N,Liberty,35.911800384521484,-79.61759948730469
DYL,Doylestown,40.3330001831,-75.1222991943
ESP,East Stroudsburg,41.035983,-75.160236
N40,Pittstown,40.565328,-74.978872
OCW,Washington,35.570499420166,-77.049797058105
\N,Engelhard,35.562400817871094,-75.9552001953125
SWO,Stillwater,36.161201477051,-97.08570098877
OKM,Okmulgee,35.668098449707,-95.948699951172
CUH,Cushing,35.9499015808,-96.7731018066
CSM,Clinton,35.3398017883,-99.2005004883
WLD,Winfield,37.168598175,-97.0375976562
PWA,Oklahoma City,35.53419876,-97.64710236
DTN,Shreveport,32.5401992798,-93.7450027466
SEP,Stephenville,32.215301513672,-98.177696228027
\N,Perry,36.38560104370117,-97.2771987915039
\N,Goldthwaite,31.4290667,-98.6083556
\N,Hamilton,31.6658992767334,-98.14859771728516
ADT,Ada,34.804298,-96.671303
\N,Misquite,32.74700164794922,-96.53040313720705
\N,Denton,33.2006988525,-97.1979980469
\N,Austin,30.3974931,-97.5663935
\N,Lago Vista,30.49860000610352,-97.96949768066406
\N,Brenham,30.21899986,-96.3742981
\N,Lakeway,30.357500076293945,-97.99449920654295
IRB,Iraan,30.9057006836,-101.891998291
\N,San Antonio,29.812700271606445,-98.42530059814452
IKB,North Wilkesboro,36.2228012085,-81.09829711910001
\N,Charleston,32.70090103149414,-80.00289916992188
DAN,Danville,36.572898864746094,-79.33609771728516
\N,Brookneal,37.1417007446,-79.01640319820001
\N,Spokane,47.656279,-117.415519
\N,Lewistown,40.58911,-77.578615
HCW,Cheraw,34.71289825,-79.95700073
X06,Arcadia,27.1174,-81.5023
\N,Wuchula,27.51490020752,-81.880500793457
2RR,River Ranch,27.4676,-81.1224
X10,Belle Galdes,26.419,-80.3965
X51,Homestead,25.2995,-80.3325
X50,Edgewater,28.5874,-80.5549
F45,Palm Beach Gardens,26.5076,-80.1334
2IS,Clewiston,26.4411,-81.0306
\N,Conway,33.82849884,-79.12220001
W24,Lynchburg,37.2268,-79.0733
\N,Youngstown,41.102701,-80.654565
\N,Hialeah,25.846394,-80.259617
\N,Opa-locka,25.900036,-80.252694
\N,Golden Glades,25.92155,-80.216917
\N,Hollywood,26.012411,-80.167658
\N,Hollywood,26.031717,-80.167774
\N,Fort Lauderdale,26.119942,-80.169808
\N,Fort Lauderdale,26.201194,-80.150369
\N,Pompano Beach,26.272286,-80.134814
\N,Kalispell,48.05,-114.1
\N,Asheboro,35.65449905,-79.8946991
\N,Wallace,34.717899322509766,-78.00360107421875
\N,Emporia,36.6869010925293,-77.48280334472656
\N,Rochester,43.163411,-77.608057
\N,Rome,43.199425,-75.44996
\N,Amsterdam,42.953719,-74.2195
\N,Schenectady,42.814606,-73.942887
\N,Hudson,42.253891,-73.797729
\N,Rhinebeck,41.921346,-73.951278
\N,Croton-on-Hudson,41.189903,-73.882394
\N,Naperville,41.779722,-88.145556
\N,Mendota,41.549583,-89.117918
\N,Princeton,41.385191,-89.466815
\N,Galesburg,40.944678,-90.364106
\N,Fort Madison,40.622591,-91.336983
\N,La Plata,40.02922,-92.493384
\N,Lawrence,38.971166,-95.230539
\N,Topeka,39.051415,-95.664916
\N,Newton,38.046976,-97.344886
\N,Hutchinson,38.05599,-97.931591
\N,Dodge City,37.752411,-100.016994
\N,Garden City,37.964365,-100.873256
\N,Lamar,38.0897011,-102.6183855
\N,La Junta,37.988165,-103.54319
\N,Trinidad,37.172688,-104.507981
\N,San Francisco,37.757674,-122.392636
\N,San Francisco,37.709544,-122.401318
\N,South San Francisco,37.655904,-122.405264
\N,San Bruno,37.631106,-122.412018
\N,Burlingame,37.587466,-122.363233
\N,Burlingame,37.579719,-122.345266
\N,San Mateo,37.552346,-122.308916
\N,San Mateo,37.538995,-122.298155
\N,Belmont,37.520504,-122.276075
\N,San Carlos,37.507361,-122.260365
\N,Redwood City,37.485412,-122.231957
\N,Atherton,37.464349,-122.198106
\N,Menlo Park,37.45418,-122.18202
\N,Palo Alto,37.44307,-122.1649
\N,Palo Alto,37.428835,-122.142703
\N,Mountain View,37.407157,-122.107231
58J,Timmonsville,34.14,-79.92
EMT,El Monte,34.086102,-118.035004
\N,San Jose,37.3328611,-121.8198056
\N,Hollister,36.8933453,-121.4102706
\N,King City,36.2285556,-121.1213056
\N,Placerville,38.7242222,-120.753333
\N,Blue Canyon,39.283333,-120.7
\N,Lee Vining,37.9577778,-119.1058056
\N,Jackpot,41.9758293,-114.6580158
\N,Arco,43.6035278,-113.33425
\N,Bountiful,40.8693892,-111.9271611
\N,Battle Mountain,40.5666667,-116.9166667
\N,Bishop,37.3666667,-118.3666667
\N,Needle,34.7666667,-114.6166667
\N,Agua Dulce,34.5025694,-118.3146444
\N,Tonopah,38.05,-117.0833333
\N,Mount Laurel,39.931846,-74.957483
\N,Wyandanch,40.75479,-73.35806
\N,Melville,40.74535,-73.3996
\N,Farmingdale,40.73591,-73.44124
\N,Bethpage,40.74271,-73.4830487
\N,Hicksville,40.76717,-73.52853
\N,New York,40.699683,-73.807903
\N,New York,40.74584,-73.90297
\N,Chelsea,42.395661,-71.034826
\N,Lynn,42.462293,-70.947794
\N,Swampscott,42.473739,-70.922036
\N,Beverly,42.546907,-70.885168
\N,Beverly,42.561483,-70.870035
\N,Beverly,42.561403,-70.812745
\N,Manchester by the Sea,42.57357,-70.770473
\N,Gloucester,42.611933,-70.705417
\N,Gloucester,42.616157,-70.668953
\N,Pineville,37.600399017333984,-81.5593032836914
\N,New York,40.8615,-73.89058
\N,Greenwich,41.021277,-73.624621
\N,New Haven,41.304908,-72.921672
ZLY,Rennselaer,42.6408,-73.7419
\N,Port Jefferson,40.93454,-73.0525
\N,Stony Brook,40.92031,-73.12855
\N,St. James,40.88216,-73.15951
\N,Smithtown,40.85654,-73.19803
\N,Kings Park,40.88366,-73.25625
\N,East Northport,40.88064,-73.32848
\N,Greenlawn,40.86866,-73.36285
\N,Huntington,40.853,-73.40952
\N,Cold Spring Harbor,40.83563,-73.45108
\N,Syosset,40.82485,-73.50044
\N,Westbury,40.75345,-73.58586
\N,Carle Place,40.7492,-73.60365
\N,Mineola,40.740114,-73.641032
\N,Garden City,40.73516,-73.66252
\N,New Hyde Park,40.73075,-73.68096
\N,Heli 1,35.995533,-113.781939
\N,Heli 2,36.191248,-114.660224
\N,Homewood,41.562241,-87.668474
\N,Kankakee,41.119259,-87.86543
\N,Gilman,40.752547,-87.998055
\N,Rantoul,40.310905,-88.159126
F70,Murrieta,33.5741791,-117.1284732
SSF,Stinson,29.336999893188,-98.471099853516
\N,Sallisaw,35.4382019,-94.80280304
JAS,Jasper,30.88570023,-94.03489685
\N,El dorado springs,37.8567008972168,-93.99909973144533
MRF,Marfa,30.371099,-104.017997
ALE,Alpine,30.3841991425,-103.683998108
\N,Gulf of Mexico - Noble Sam Croft,27.332491,-90.600112
CCB,Upland,34.1115989685,-117.68800354
\N,Mount Sterling,38.05810165,-83.979599
EKI,Elkhart,41.7193984985,-86.00319671630001
\N,Nappanee ,41.44620132446289,-85.93479919433594
CUB,Columbia,33.970500946,-80.9952011108
\N,Grove,36.60680008,-94.73860168
\N,Mc Pherson,38.35240173,-97.69129944
GDC,Greenville,34.758301,-82.376404
\N,Perry,32.51060104370117,-83.76730346679688
HVS,Hartsville,34.4030990601,-80.11920166019999
\N,Chapel Hill,35.935001,-79.065902
\N,Oak Island,33.9292984,-78.07499695
\N,Richmond,37.40650177,-77.52500153
\N,Oxford,36.36159897,-78.52919769
LEE,Leesburg,28.82309914,-81.80870056
CNO,Chino,33.97470093,-117.637001
\N,London,39.93270111,-83.46199799
\N,Long Beach,40.589368,-73.664854
\N,Mount Vernon,48.42,-122.326
\N,Durham,35.9981,-78.9061
\N,Cheboygan,45.645978,-84.474092
\N,Bois Blanc Island,45.727626,-84.452428
6Y1,Bois Blanc Island,45.7662977,-84.5038139
PRB,Paso Robles,35.67290115,-120.6269989
\N,St Ignace ,45.874246,-84.72764
\N,Bryan,41.480319,-84.551799
\N,Chicago,41.8822222,-87.6405556
\N,Oak Park,41.8869444,-87.8011111
\N,River Forest,41.8869444,-87.825
\N,Melrose Park,41.8902778,-87.8555556
\N,Bellwood,41.8913889,-87.8825
\N,Berkeley,41.8961111,-87.9152778
\N,Elmhurst,41.8997222,-87.9408333
\N,Villa Park,41.8963889,-87.9775
\N,Lombard,41.8859513,-88.0194586
\N,Glen Ellyn,41.8766667,-88.0647222
\N,Wheaton,41.8678805,-88.0902999
\N,Wheaton,41.8644444,-88.1119444
\N,Winfield,41.87,-88.1569444
\N,West Chicago,41.8811111,-88.1988889
\N,Geneva,41.8817393,-88.3093928
\N,Milwaukee,43.034328,-87.917414
\N,Fort Wayne,41.072222,-85.140556
\N,Chicago,41.9169417,-87.6680534
\N,Chicago,41.9687062,-87.674337
\N,Chicago,42.009125,-87.6754054
\N,Evanston,42.0333333,-87.68
\N,Saint Paul,44.947778,-93.086111
\N,Daly City,37.706224,-122.468934
FID,Southold,41.1505,-72.0154
\N,New York,40.5196,-74.2293
\N,New York,40.60347,-74.08378
\N,New York,40.615667,-74.031361
\N,New York,40.833333,-73.860972
\N,New York,40.848889,-73.938333
ZRV,Providence,41.829087,-71.41325
\N,Attleboro,41.9413,-71.2849
\N,North Falmouth,41.648058,-70.613736
\N,Woods Hole,41.522894,-70.669164
\N,Buzzards Bay,41.745,-70.615833
\N,Old Saybrook,41.3004,-72.377
ZTD,Schenectady,42.8146,-73.9428
HAF,Half Moon Bay,37.5134010315,-122.500999451
\N,Woodside,37.430039,-122.25403
\N,San Francisco,37.760395,-122.508781
WJF,Lancaster,34.74110031,-118.2190018
L05,Kernville,35.7282222,-118.4197222
D95,Lapeer  MI ,43.0664722,-83.2715556
\N,New York City,40.754558,-73.845581
\N,Baltimore,39.192377,-76.694645
\N,Washington,38.92063,-77.22193
\N,Chicago,41.780536,-87.630952
\N,Gary,41.604722,-87.338333
\N,Harpers Ferry,39.324444,-77.731111
\N,Cumberland,39.6506,-78.7579
\N,Connellsville,40.020232,-79.592888
\N,Petersburg,37.242242,-77.429339
\N,Rocky Mount,35.93805,-77.79788
\N,Columbia,33.994364,-81.040539
\N,Savannah,32.083488,-81.148321
\N,Jacksonville,30.3661,-81.72339
\N,Ocala,29.191944,-82.135833
\N,Lakeland,28.045665,-81.951944
\N,Winter Haven,28.002211,-81.734911
\N,Sebring,27.496111,-81.434722
\N,Okeechobee,27.25178,-80.82991
\N,West Palm Beach,26.712311,-80.062297
\N,Boynton Beach,26.553865,-80.070644
\N,Sturtevant,42.7183,-87.9062
\N,Chantilly,38.955833,-77.447778
\N,East Boston,42.374374,-71.030243
\N,Arlington,38.852985,-77.0439
\N,Arlington,38.806501,-77.06112
\N,Atlanta,33.640758,-84.44685
\N,Atlanta,33.759677,-84.387548
\N,Atlanta,33.847144,-84.35631
\N,Seattle,47.621263,-122.349972
\N,Seattle,47.611969,-122.337082
\N,Seattle,47.602657,-122.337729
\N,New York,40.747615,-73.945069
\N,New York,40.712655,-74.009657
\N,Secaucus,40.76161,-74.074985
\N,New York,40.666789,-73.994079
\N,New Orleans,29.9462,-90.0786
\N,New Orleans,29.953573,-90.070099
\N,New Orleans,29.942916,-90.072903
\N,New Orleans,29.92825,-90.091591
\N,New Orleans,29.928584,-90.112945
\N,New Orleans,29.943257,-90.1341
\N,New Orleans,29.955749,-90.120711
\N,Indianapolis,39.763056,-86.159444
\N,Albion,42.247222,-84.756111
\N,Racine,42.72,-87.8168
\N,La Crosse,43.8334,-91.2472
\N,Wisconsin Dells,43.6266,-89.7775
\N,Portage,43.5471,-89.4677
\N,Richland Center,43.3345,-90.3888
\N,Millbrae,37.6159,-122.3926
\N,San Francisco,37.793056,-122.397222
\N,San Bruno,37.6377,-122.4163
\N,Berkeley,37.853068,-122.269957
\N,Blake Knolls,32.28,-118.25
\N,Mangonia Park,26.758383,-80.076459
\N,Lake Worth,26.616131,-80.069135
\N,Delray Beach,26.454215,-80.090934
\N,Boca Raton,26.392596,-80.099076
\N,New London,41.354167,-72.093056
\N,Chicago,41.78661,-87.737875
\N,Anaheim,33.803889,-117.8775
\N,Simi Valley,34.270556,-118.694722
\N,St. Paul,44.947778,-93.086111
\N,Minneapolis,44.983333,-93.277222
\N,Bloomington,44.854167,-93.239
\N,Hennepin County,44.8811,-93.2057
\N,Hennepin County,44.8742,-93.2241
CXC,Chitina,61.515833,-144.436667
W79,Tappahannock,37.925136,-76.871631
\N,Roxboro,36.28490067,-78.98419952
\N,Hazel Crest,41.580764,-87.658491
\N,Western Springs,41.809,-87.9011
\N,South San Francisco,37.664264,-122.444043
\N,Colma,37.684722,-122.466111
\N,San Francisco,37.721629,-122.447519
\N,Glen Park,37.733118,-122.433808
\N,San Francisco,37.752,-122.4187
\N,San Francisco,37.764847,-122.420042
\N,San Francisco,37.779861,-122.413498
\N,Orient,41.155167,-72.241662
\N,Evanston,42.0478267,-87.6845187
\N,Evanston,42.064219,-87.7002417
\N,Wilmette,42.0767983,-87.7105988
\N,Birmingham,33.512778,-86.806944
\N,Tampa,27.952222,-82.451111
\N,Montgomery,32.380278,-86.314444
\N,Charlotte,35.241222,-80.822639
\N,Fayetteville,35.0551,-78.8847
\N,Kenilworth,42.0863929,-87.7188554
\N,Winnetka,42.0944484,-87.7260776
\N,Winnetka,42.1051752,-87.735091
\N,Winnetka,42.1180596,-87.7457998
\N,Glencoe,42.1355596,-87.7602443
\N,Highland Park,42.1527818,-87.7746887
\N,Highland Park,42.165004,-87.7849665
\N,Highland Park,42.1832298,-87.7998782
\N,Highwood,42.2033373,-87.8127443
\N,Fort Sheridan,42.217504,-87.823022
\N,Lake Forest,42.2527473,-87.8414713
\N,Lake Bluff,42.2797261,-87.8488554
\N,Great Lakes,42.3069483,-87.8485776
\N,North Chicago,42.328615,-87.8391331
\N,Waukegan,42.3606155,-87.830563
\N,Zion,42.4491706,-87.8202443
\N,Winthrop Harbor,42.4827817,-87.8182998
\N,Kenosha,42.5858372,-87.828022
26A,Lineville,33.2841972,-85.8089653
ASN,Talladega,33.569900512699995,-86.05090332030001
GMU,Greenville,34.8479003906,-82.34999847410002
8A1,Guntersville,34.4017219,-86.2657787
\N,Highland Park,42.1580596,-87.7791331
\N,Mankato,44.22159958,-93.91870117
TOI,Troy,31.860399,-86.012101
\N,Sylacauga,33.17179870605469,-86.30549621582031
ETS,Enterprise,31.29969978,-85.89990234
14J,Elba,31.41,-86.090278
71J,Ozark,31.431944,-85.620556
41A,Tallassee,32.515,-85.876111
79J,Andalusia,31.308333,-86.392222
\N,Tucson,32.1422004699707,-111.1750030517578
ALX,Alexander City,32.914699554399995,-85.9629974365
\N,McComb,31.2445,-90.4512
\N,Meriden,41.50870132446289,-72.82949829101562
\N,Chicago,41.8769146,-87.6233102
\N,Chicago,41.8686111,-87.6238163
\N,Chicago,41.7933665,-87.5898448
\N,East Chicago,41.6114919,-87.4813219
\N,Chesterton,41.644906,-87.0630057
\N,Tampa Bay,27.94985,-82.445255
\N,Hialeah,25.811239,-80.258703
\N,Ridgely,38.97010040283203,-75.86630249023438
\N,New Castle,39.87590027,-85.32649994
\N,Scott City,38.47430038452149,-100.88500213623048
HDE,Holdredge,40.452099,-99.336502
PTT,Pratt,37.70159912,-98.74690247
\N,Wahoo,41.2412986755,-96.59400177
LXN,Lexington,40.7910003662,-99.7772979736
\N,Sublette,37.49140167,-100.8300018
CBF,Council Bluffs,41.2592010498,-95.760597229
OKK,Kokomo,40.528198242188,-86.05899810791
\N,Neodesha,37.43539810180664,-95.64610290527344
\N,Sutton,61.79560089111328,-148.35499572753906
\N,Elkhart,37.000702,-101.879997
\N,Denver,39.785301208496094,-104.54299926757812
GBG,Galesburg,40.9379997253,-90.431098938
5K2,Tribune,38.4514722,-101.7500833
GUY,Guymon,36.6851005554,-101.508003235
OZS,Camdenton,37.9739722,-92.6911944
\N,Meade,37.27690124511719,-100.3560028076172
\N,Shell Knob,36.59170150756836,-93.66690063476562
\N,Ulysses,37.60400009,-101.3740005
\N,Flagler,39.27999877929688,-103.06700134277344
IDP,Independence,37.1584014893,-95.7783966064
\N,Augusta,37.67160034179688,-97.0779037475586
\N,Larned,38.20859909,-99.08599854
\N,Lampasas,31.106199264526367,-98.1958999633789
BBC,Bay City,28.9733009338,-95.8635025024
PRX,Paris,33.636600494385,-95.450798034668
CFV,Coffeyville,37.09400177,-95.5718994141
\N,Summit,33.93579864501953,-81.42970275878906
GXY,Greeley,40.4374008179,-104.633003235
\N,Memphis,35.20069885,-90.05400085
OEL,Oakley,52.9347000122,36.0022010803
FET,Fremont,41.44910049,-96.52020264
LGD,La Grande,45.2901992798,-118.007003784
\N,Line Lexington,40.2967725,-75.2479522
MPO,Mount Pocono,41.137503,-75.378897
UKT,Quakertown,40.435199737549,-75.381896972656
PCT,Princeton,40.399167,-74.658889
\N,Newport,41.48627,-71.317954
\N,Galveston,29.309211,-94.796855
\N,New Jersey,40.710581,-74.044429
NRW,Bentonville,36.386516959,-94.153441209
NGM,Agana,13.483056,144.7933673
BNG,Banning,33.9230995178,-116.850997925
OFK,Norfolk  Nebraska,41.985500335693,-97.435096740723
\N,Houghton,47.1222,-88.5938
\N,Isle Royale National Park,47.910917,-89.158778
\N,Arlington,48.16070175,-122.1589966
TPF,Tampa,27.915599822998,-82.44930267334
\N,Chicago,41.848349,-87.647573
\N,Chilton,43.98144,-88.300423
\N,Barnstable,41.6475829,-70.2793818
\N,Nantucket,41.284739,-70.0933503
\N,Jackson,32.301111,-90.191111
\N,Zion Nationalpark,37.217655,-112.974176
\N,Yosemite Nationalpark,37.745557,-119.593538
N10,Collegeville,40.2040483,-75.4302631
W29,Stevensville,38.9764554,-76.3299691
MTP,Montauk,41.0765,-71.920797
OLW,Olympia,46.99145,-122.79403
\N,Centralia,46.7174,-122.9529
\N,Chicago,41.9524992,-87.730079
\N,Chicago,41.9699499,-87.7640733
VPZ,Valparaiso IN,41.45399857,-87.00710297
LDM,Ludington,43.96250153,-86.40789795
RHV,San Jose,37.332901001,-121.819000244
\N,Fraser CO,39.949225,-105.817164
\N,Green River,38.992083,-110.165278
\N,Helper UT,39.683889,-110.85375
\N,Winnemucca,40.969444,-117.731389
\N,Colfax CA,39.0994,-120.9531
\N,Roseville,38.75,-121.2862
\N,Dunsmuir CA,41.2112,-122.2706
\N,Chemult OR,43.21683,-121.781436
\N,Albany OR,44.630278,-123.1025
\N,Salem OR,44.932222,-123.028056
\N,Vancouver WA,45.628889,-122.686389
\N,Granby CO,40.0841,-105.9355
\N,Atlantic Ocean,42.4301733,-70.233896
\N,Barnstable,41.7053635,-70.3008188
ZXS,Buffalo,42.8783,-78.8738
\N,Seattle,47.6321326,-122.3275924
\N,Deming,32.272195,-107.754279
5Z9,Katmai National Park ,58.554722,-155.777217
\N,Ludington,43.9491748,-86.4532907
\N,Manitowoc,44.0897108,-87.6535447
ZRL,Lancaster,40.054364,-76.307722
ZUG,Harrisburg,40.261944,-76.877778
ZTJ,Princeton,40.3171699,-74.6227145
S52,Winthrop,48.4249483,-120.1458856
S10,Chelan,47.8660103,-119.9427017
W12,Mazma,48.6495842,-120.5020444
6S9,Stehekin,48.3457778,-120.7208056
\N,Far Rockaway,40.6077377,-73.7517433
\N,Inwood,40.6122841,-73.7463687
\N,Lawrence,40.6157341,-73.7380887
\N,Cedarhurst,40.6221741,-73.7283687
\N,Woodmere,40.6313341,-73.7158987
\N,Santa Clarita,34.424959,-118.597224
\N,Camarillo - CA,34.21369934082031,-119.09400177001952
\N,Bellingham,48.7205,-122.5111
\N,Denali NP,62.966667,-151.166667
S27,Kalispell,48.1785694,-114.3037408
\N,Davis,38.531137,-121.787423
\N,Cordelia,38.173663,-122.124524
\N,Richmond,37.936811,-122.353095
\N,Mountain View,37.407222,-122.106944
WVI,Watsonville,36.9356994629,-121.790000916
HLI,Hollister,36.8932991028,-121.410003662
\N,Williamsburg,37.239200592041016,-76.71610260009766
\N,Keystone,43.883,-103.417
\N,Rockville,39.0844971,-77.1482614
\N,Hillsdale,37.537778,-122.2975
\N,Marysville,40.224700927734375,-83.35160064697266
\N,Kailua-Kona Hawaii,19.638587,-155.996739
ALN,Alton/St Louis,38.89030075069999,-90.0459976196
AXN,Alexandria,45.8662986755,-95.3946990967
CLU,Columbus,39.2619018555,-85.8963012695
BBD,Brady,31.1793003082,-99.3238983154
BIH,Bishop,37.3731002808,-118.363998413
BKE,Baker City,44.8372993469,-117.808998108
BPI,Big Piney,42.58509827,-110.1110001
WMH,Mountain Home,36.3689002991,-92.4704971313
BTL,Battle Creek,42.3073005676,-85.2515029907
BYI,Burley,42.5425987244,-113.772003174
CCY,Charles City,43.0726013184,-92.6108016968
CNU,Chanute,37.668800354,-95.4850997925
CRG,Jacksonville,30.3362998962,-81.51439666750001
CSV,Crossville,35.9513015747,-85.08499908450001
DAA,Fort Belvoir,38.715000152600005,-77.1809997559
DAG,Daggett,34.85369873,-116.7870026
DMN,Deming,32.262298584,-107.721000671
DRA,Mercury,36.6194,-116.032997
EED,Needles,34.7663002014,-114.623001099
EGI,Crestview,30.65040016,-86.52290344
EKA,Eureka,40.8033981323,-124.112998962
\N,San Marcos,29.8927,-97.862999
HYR,Hayward,46.025199890100005,-91.44429779050002
JCT,Junction,30.5112991333,-99.7634963989
\N,Monticello,33.6385994,-91.75099945
LOL,Lovelock,40.0663986206,-118.565002441
MBG,Mobridge,45.54650116,-100.4079971
MCB,Mc Comb,31.17849922,-90.47190094
MDH,Carbondale/Murphysboro,37.778099060058594,-89.25199890136719
MMT,Eastover,33.92079926,-80.80130005
NHZ,Brunswick,43.89220047,-69.93859863
NRB,Mayport,30.39109993,-81.42469788
OGB,Orangeburg,33.456798553467,-80.859497070312
\N,Columbus,41.44800186,-97.34259796
OTM,Ottumwa,41.10660172,-92.44789886
OZR,Fort Rucker/Ozark,31.27569962,-85.71340179
PWY,Pinedale,42.79550171,-109.8069992
POU,Poughkeepsie,41.6265983581543,-73.88420104980469
\N,New Richmond,45.14830017,-92.5381012
RSL,Russell,38.872100830078,-98.811798095703
RWF,Redwood Falls,44.54719925,-95.08229828
SNS,Salinas,36.662799835205,-121.60600280762
\N,Sonora,30.585699081421,-100.6490020752
\N,Benton,34.59059906,-92.47940063
TPH,Tonopah,38.06019974,-117.086998
\N,Aurora,45.247100830078125,-122.7699966430664
UKI,Ukiah,39.125999450684,-123.20099639893
UOX,Oxford,34.384300231934,-89.536796569824
HTV,Huntsville,30.7469005585,-95.5871963501
VTN,Valentine,42.85779953,-100.5479965
WMC,Winnemucca,40.8965988159,-117.805999756
WWR,Woodward,36.438,-99.5226667
\N,Cocoa Beach,28.4675998688,-80.56659698490002
\N,Groom Lake,37.23500061035156,-115.81099700927734
ZZV,Zanesville,39.9444007874,-81.89209747310001
ENN,Nenana,64.54730224609375,-149.07400512695312
WWA,Wasilla,61.5717010498,-149.539993286
\N,Kahului Maui,20.896733,-156.466495
\N,Gerlach,40.7616106,-119.2120421
DIC,DICKA,37.789,-122.43
\N,Quatermaster Canyon,35.9675,-113.765833
\N,San Francisco,37.765833,-122.449806
\N,San Francisco,37.77942,-122.3901
\N,San Francisco,37.79045,-122.38954
\N,San Francisco,37.789355,-122.401942
\N,San Francisco,37.784,-122.408
\N,San Francisco,37.775,-122.419
\N,San Francisco,37.76946,-122.42912
\N,San Francisco,37.76919,-122.43357
\N,San Francisco,37.76436,-122.45883
\N,San Francisco,37.76218,-122.46618
\N,San Francisco,37.734898,-122.405911
\N,San Francisco,37.774629,-122.405073
\N,San Bruno,37.628348,-122.425642
\N,Los Altos,37.381789,-122.132472
\N,San Francisco,37.76252,-122.43553
\N,Daly City,37.671066,-122.480115
\N,Berkeley,37.869799,-122.268197
\N,San Francisco,37.734413,-122.472066
\N,San Francisco,37.74707,-122.444819
\N,San Jose,37.301563,-121.981332
\N,Oakland,37.8049,-122.2951
\N,Oakland,37.797773,-122.266588
\N,Oakland,37.774836,-122.224081
\N,Oakland,37.753611,-122.196944
\N,Oakland,37.7132,-122.2122
\N,San Jose,37.315526,-121.976489
\N,San Jose,37.337697,-122.049767
\N,Palo Alto,37.431469,-122.1000635
\N,Tracy,37.68899917602539,-121.44200134277344
\N,San Francisco,37.808383,-122.410332
\N,San Francisco,37.79515,-122.393909
\N,Oakland,37.728333,-122.199722
\N,Martinsburg,39.458611,-77.960694
\N,Cary,35.788611,-78.781328
\N,Southern Pines,35.175527,-79.390383
\N,Hamlet,34.883328,-79.698256
\N,Camden,34.248,-80.625
\N,Denmark,33.3262,-81.1436
\N,Valparaiso,41.466567,-87.065799
\N,Warsaw,41.236096,-85.851833
\N,Lima,40.744935,-84.102117
\N,Mansfield,40.768637,-82.512401
\N,Upper Sandusky,40.824756,-83.283762
\N,Bucyrus,40.808601,-82.966571
\N,Wooster,40.799006,-81.931987
\N,Canton,40.795537,-81.367836
\N,Wildwood,28.86553,-82.03963
\N,Baldwin,30.300415,-81.975053
\N,Columbus,39.90119934082031,-83.13690185546875
MVW,Skagit,48.4709014893,-122.42099762
\N,Duffields,39.362111,-77.827778
\N,Brunswick,39.311944,-77.627222
\N,Point of Rocks,39.273528,-77.533333
\N,Germantown,39.173333,-77.270667
\N,Gaithersburg,39.141528,-77.193056
\N,Silver Spring,38.993841,-77.031321
\N,Arlington,38.859444,-77.048333
\N,Springfield,38.766111,-77.168611
\N,Woodbridge,38.659167,-77.248056
\N,Fredericksburg,38.298333,-77.456944
\N,Fredericksburg,38.2214,-77.441
\N,Woodbridge,38.6125,-77.253611
\N,Dumfries,38.572659,-77.263307
\N,Brooke,38.387222,-77.381667
\N,Stafford,38.346944,-77.437778
\N,Lorton,38.715,-77.214444
\N,Chattanooga,35.036944,-85.306944
APT,Jasper,35.060699,-85.585297
\N,Evergreen,31.4158,-87.043999
\N,Flomaton,30.998876,-87.257451
DCU,Decatur,34.652698516799994,-86.94539642330001
GLW,Glasgow,37.03179932,-85.9536972
\N,Lithonia,33.712124,-84.105713
\N,Madison,33.55349,-83.47155
\N,Augusta,33.484831,-82.079085
\N,Harper Ridge,41.413811,-81.452579
FIN,Flagler County,29.4645926,-81.2091644
\N,Tavernier,25.0087408,-80.5331167
\N,Key Largo,25.169888,-80.376139
\N,Yeehaw Junction,27.699749,-80.904368
\N,Fort Pierce,27.408954,-80.427569
\N,Hialeah,25.948889,-80.423333
\N,Miami Gardens,25.960104,-80.236716
\N,Homestead,25.471667,-80.489167
\N,Lake Suzy,27.042593,-82.043568
\N,Andytown,26.14505,-80.454274
\N,Miami,25.845556,-80.248611
\N,Hialeah,25.832222,-80.240833
\N,Miami,25.821944,-80.240556
\N,Miami,25.8125,-80.23
\N,Miami,25.808611,-80.215556
\N,Miami,25.795833,-80.215278
\N,Miami,25.789722,-80.215
\N,Miami,25.784444,-80.207778
\N,Miami,25.780833,-80.196111
\N,Miami,25.775833,-80.195833
\N,Miami,25.771944,-80.193333
\N,Miami,25.771667,-80.191111
\N,Miami,25.773056,-80.187222
\N,Miami,25.775556,-80.189722
\N,Miami,25.7775,-80.189722
\N,Miami,25.778889,-80.191944
\N,Miami,25.778611,-80.195278
\N,Miami,25.773333,-80.193333
\N,Highland Gardens,25.964964,-80.166443
\N,Atlanta,33.651673,-84.448793
\N,Atlanta,33.677814,-84.440344
\N,Atlanta,33.700457,-84.428859
\N,Atlanta,33.716848,-84.4252
\N,Atlanta,33.73581,-84.41296
\N,Atlanta,33.747845,-84.396415
\N,Atlanta,33.753826,-84.391571
\N,Atlanta,33.766305,-84.387209
\N,Atlanta,33.771712,-84.386699
\N,Atlanta,33.781121,-84.386345
\N,Atlanta,33.789705,-84.387789
\N,Atlanta,33.821995,-84.367447
\N,New York,40.755839,-74.001961
\N,New York,40.702454,-74.016868
\N,New York,40.641078,-74.018181
\N,New York,40.634558,-74.010694
\N,New York,40.628229,-74.181538
\N,New York,40.70771,-74.011717
\N,New York,40.710206,-74.007744
\N,New York,40.712778,-74.004722
\N,New York,40.718056,-74.0
\N,New York,40.722222,-73.997222
\N,New York,40.725833,-73.994722
\N,New York,40.729722,-73.991667
\N,New York,40.734722,-73.990278
\N,New York,40.740169,-73.98644
\N,New York,40.74329,-73.984165
\N,New York,40.746389,-73.981944
\N,New York,40.752283,-73.977519
\N,New York,40.756,-73.987
\N,New York,40.761,-73.984
\N,New York,40.767997,-73.981934
\N,New York,40.774,-73.982
\N,New York,40.779,-73.982
\N,New York,40.784,-73.98
\N,New York,40.7883,-73.9764
\N,Paterson,40.9146,-74.1673
\N,Wayne,40.8993,-74.2561
\N,Denville,40.883889,-74.481111
\N,Mount Arlington,40.8967,-74.6328
\N,Mount Olive,40.907417,-74.730778
\N,Columbia,40.918472,-75.092028
\N,Stroudsburg,40.983347,-75.200006
\N,Rye,40.986105,-73.680505
\N,Woodbridge,40.557094,-74.277783
\N,East Rutherford,40.812778,-74.071944
\N,Metuchen,40.54075,-74.360339
\N,Cranbury,40.303601,-74.490636
\N,Mount Laurel,39.966817,-74.89956
\N,Deptford Township,39.844471,-75.091465
\N,Mannington Township,39.638169,-75.408503
\N,Florence,40.100104,-74.805144
\N,Larchmont,40.934444,-73.759782
\N,Westerly,41.3812,-71.8299
\N,North Kingstown,41.5808,-71.4914
\N,Providence,41.726629,-71.442488
\N,South Attleboro,41.8976,-71.3558
\N,Danielson,41.81969833374024,-71.9010009765625
\N,Waterbury,41.555,-73.046944
\N,Brewster,41.394637,-73.61984
\N,Westwood,42.2102,-71.1472
\N,Auburndale,42.3458,-71.2503
\N,Newtonville,42.3517,-71.20525
\N,Cambridge,42.365,-71.1034
\N,Boston,42.32058,-71.05239
\N,Boston,42.33019,-71.05712
\N,Quincy,42.232894,-71.008083
\N,Boston,42.3593,-71.0531
\N,Boston,42.3657,-71.061
\N,Boston,42.3737,-71.0702
\N,Boston,42.384031,-71.07697
\N,Sourthborough,42.294092,-71.496185
\N,Palmer,42.155922,-72.329339
\N,Lee,42.308547,-73.252441
\N,Trevose,40.1402,-74.9828
\N,Hatboro,40.1756,-75.103
\N,Fort Washington,40.135362,-75.211506
\N,Norristown,40.113125,-75.345054
\N,Upper Merion Township,40.0812,-75.3489
\N,Eagle,40.091978,-75.710907
\N,Conshohocken,40.0742,-75.286
\N,Conshohocken,40.0721,-75.3086
\N,Philadelphia,40.0165,-75.2103
\N,Philadelphia,40.0114,-75.192
\N,Philadelphia,39.974993,-75.196358
\N,Philadelphia,39.94784,-75.19034
\N,Philadelphia,39.9168,-75.1713
\N,Philadelphia,39.8917,-75.245
\N,Ridley Park,39.8719,-75.3311
\N,Marcus Hook,39.8215,-75.4197
\N,Newark,39.694,-75.6724
\N,Deepwater,39.678294,-75.487222
\N,Schenectady,42.758489,-73.924612
\N,Amsterdam,42.953611,-74.219444
\N,Fort Plain,42.922267,-74.627023
\N,Utica,43.1336,-75.267869
\N,McKean,42.01484,-80.120305
\N,Drums,41.036402,-76.022961
\N,Scranton,41.406028,-75.662111
\N,Port Jervis,41.375,-74.6951
\N,Bloomsburg,40.9977,-76.436
\N,Mackeyville,41.064125,-77.434052
N96,Bellefonte,40.8855,-77.8162222
\N,Clearfield,41.04859924316406,-78.41310119628906
\N,Emlenton,41.202655,-79.67945
\N,West Middlesex,41.1653347,-80.50257
\N,Jackson,41.103814,-80.826606
\N,Hermitage,41.201465,-80.422374
\N,Cranberry Township,40.658626,-80.089035
\N,Allison Park,40.588205,-79.90589
\N,Greenbelt,39.011068,-76.911011
\N,Falls Church,38.900773,-77.189298
\N,McLean,38.92434,-77.21048
\N,North Bethesda,39.029188,-77.103904
\N,Forest Glen,39.0153,-77.043
\N,Mansfield,42.0334,-71.2194
\N,Olmsted Park,41.3667693,-81.966605
\N,Avery,41.31979,-82.609369
\N,Fremont,41.724134,-84.93292
\N,Lafayette,40.460326,-86.835138
RNZ,Rensselaer,40.9478988647,-87.1826019287
\N,Rochester,44.023763,-92.465845
3N6,Englishtown,40.3298867,-74.3467869
\N,Punalu'u,20.161667,-155.649529
PRK,Port Kent,44.5253502,-73.4021074
TBR,Statesboro,32.4827003479,-81.73690032959999
COP,Cooperstown,42.6291667,-74.8911111
OCO,Oconomowoc,43.109374,-88.485677
\N,Chicago,41.978007,-87.902907
\N,Key Biscayne,25.746798,-80.177319
\N,Chatsworth,34.252778,-118.599444
BNL,Normal,40.508611,-88.984167
1S5,Sunnyside,46.3270833,-119.9703611
EMB,San Francisco,37.795278,-122.39361
\N,New Smyrna Beach,29.055700302124023,-80.94889831542969
\N,Las vegas,36.10810089111328,-115.17400360107422
\N,MINERAL POINT,42.886799,-90.236198
C29,Middleton,43.1142699,-89.5315336
ETB,WEST BEND,43.4221992493,-88.1278991699
GLR,GAYLORD,45.0135002136,-84.7035980225
TWM,Two Harbors,47.0519,-91.7423
AID,ANDERSON,40.10860061649999,-85.6129989624
